$GPGGA,224640.22,,,,,0,00,999.9,,M,,M,,*60
$PGLOR,9,STA,224640.22,0.000,0.000,-93,98,9999,0,P,F,L,1,C,2,S,00100000,0,2,R,00000000,TPEF,38,338124,LC,,,*13
$GPGSV,3,1,09,13,51,042,36,15,74,330,,21,46,293,,24,43,184,*75
$GPGSV,3,2,09,05,33,104,,20,20,305,,29,06,222,,28,05,063,*72
$GPGSV,3,3,09,30,04,037,*43
$GLGSV,2,1,07,68,52,341,33,83,38,245,,77,37,061,,67,35,060,*6F
$GLGSV,2,2,07,84,27,315,,69,18,292,,79,05,171,*5F
$QZGSV,1,1,03,01,80,081,,02,38,147,,03,07,181,*51
$BDGSV,3,1,10,201,43,160,,203,43,206,,225,42,076,,223,40,149,*63
$BDGSV,3,2,10,202,29,238,,227,18,216,,205,10,258,,220,07,288,*6D
$BDGSV,3,3,10,229,07,320,,224,06,034,*63
$GAGSV,2,1,07,107,38,063,34,119,31,278,,127,28,123,,126,26,194,*66
$GAGSV,2,2,07,130,25,067,,112,22,313,,121,05,169,*61
$GPGSA,A,1,,,,,,,,,,,,,140.0,99.0,99.0*35
$GNGSA,A,1,,,,,,,,,,,,,140.0,99.0,99.0*2B
$QZGSA,A,1,,,,,,,,,,,,,140.0,99.0,99.0*29
$IMGSA,A,1,,,,,,,,,,,,,140.0,99.0,99.0*26
$BDGSA,A,1,,,,,,,,,,,,,140.0,99.0,99.0*24
$GAGSA,A,1,,,,,,,,,,,,,140.0,99.0,99.0*24
$GPRMC,224640.22,V,,,,,,,170219,,,N*77
$GPGGA,224641.22,,,,,0,00,999.9,,M,,M,,*61
$PGLOR,9,STA,224641.22,0.000,0.000,-93,98,9999,0,P,F,L,1,C,2,S,00100000,0,2,R,00000000,TPEF,38,339124,LC,,,*13
$GPGSV,3,1,09,15,74,330,31,13,51,042,36,05,33,104,37,21,46,293,*7F
$GPGSV,3,2,09,24,43,184,,20,20,305,,29,06,222,,28,05,063,*7E
$GPGSV,3,3,09,30,04,037,*43
$GLGSV,2,1,07,68,52,341,32,77,37,061,28,67,35,060,35,83,38,245,*62
$GLGSV,2,2,07,84,27,315,,69,18,292,,79,05,171,*5F
$QZGSV,1,1,03,01,80,081,,02,38,147,,03,07,181,*51
$BDGSV,3,1,10,201,43,160,,203,43,206,,225,42,076,,223,40,149,*63
$BDGSV,3,2,10,202,29,238,,227,18,216,,205,10,258,,220,07,288,*6D
$BDGSV,3,3,10,229,07,320,,224,06,034,*63
$GAGSV,2,1,07,107,38,063,34,119,31,278,,127,28,123,,126,26,194,*66
$GAGSV,2,2,07,130,25,067,,112,22,313,,121,05,169,*61
$GPGSA,A,1,,,,,,,,,,,,,140.0,99.0,99.0*35
$GNGSA,A,1,,,,,,,,,,,,,140.0,99.0,99.0*2B
$QZGSA,A,1,,,,,,,,,,,,,140.0,99.0,99.0*29
$IMGSA,A,1,,,,,,,,,,,,,140.0,99.0,99.0*26
$BDGSA,A,1,,,,,,,,,,,,,140.0,99.0,99.0*24
$GAGSA,A,1,,,,,,,,,,,,,140.0,99.0,99.0*24
$GPRMC,224641.22,V,,,,,,,170219,,,N*76
$GPGGA,224642.26,3728.200427,N,12652.097346,E,1,08,1.6,52.5,M,18.1,M,,*59
$PGLOR,9,STA,224642.26,-0.013,0.001,-94,98,16,0,P,F,L,0,C,3,S,00100002,0,2,R,00000000,TPEF,38,340124,LC,,,*36
$PGLOR,2,PFM,HAL,P,0,0,100,0,RF,-,-9,3.7,0,RTC,,P,STO,P,LTO,P,SW,P,,,OSC,,,*0D
$GPGSV,3,1,09,15,74,330,30,13,51,042,36,21,46,293,32,05,33,104,38*70
$GPGSV,3,2,09,24,43,184,,20,20,305,,29,06,222,,28,05,063,*7E
$GPGSV,3,3,09,30,04,037,*43
$GLGSV,2,1,07,68,52,341,32,77,37,061,30,67,35,060,35,83,38,245,*6B
$GLGSV,2,2,07,84,27,315,,69,18,292,,79,05,171,*5F
$QZGSV,1,1,03,01,80,081,,02,38,147,,03,07,181,*51
$BDGSV,3,1,10,201,43,160,,203,43,206,,225,42,076,,223,40,149,*63
$BDGSV,3,2,10,202,29,238,,227,18,216,,205,10,258,,220,07,288,*6D
$BDGSV,3,3,10,229,07,320,,224,06,034,*63
$GAGSV,2,1,07,107,38,063,34,119,31,278,,127,28,123,,126,26,194,*66
$GAGSV,2,2,07,130,25,067,,112,22,313,,121,05,169,*61
$GPGSA,A,3,05,13,15,21,,,,,,,,,4.3,2.0,3.8*3C
$GNGSA,A,3,05,13,15,21,,,,,,,,,4.3,2.0,3.8*22
$GNGSA,A,3,67,68,77,,,,,,,,,,4.3,2.0,3.8*2D
$QZGSA,A,3,,,,,,,,,,,,,4.3,2.0,3.8*20
$IMGSA,A,3,,,,,,,,,,,,,4.3,2.0,3.8*2F
$BDGSA,A,3,,,,,,,,,,,,,4.3,2.0,3.8*2D
$GAGSA,A,3,107,,,,,,,,,,,,4.3,2.0,3.8*1B
$GPRMC,224642.26,A,3728.200427,N,12652.097346,E,000.3,321.9,170219,,,A*58
$GPGGA,224643.26,3728.198922,N,12652.094993,E,1,08,1.6,56.2,M,18.1,M,,*50
$PGLOR,9,STA,224643.26,-0.013,0.000,-94,98,16,0,P,F,L,0,C,3,S,00100002,0,5,R,000832F4,TPEF,38,341124,LC,,4,*7F
$GPGSV,3,1,09,15,74,330,31,13,51,042,36,21,47,293,33,05,33,104,39*70
$GPGSV,3,2,09,24,43,184,,20,20,305,,29,06,222,,28,05,063,*7E
$GPGSV,3,3,09,30,04,037,*43
$GLGSV,2,1,07,68,52,341,31,77,37,061,30,67,35,060,36,83,38,245,*6B
$GLGSV,2,2,07,84,27,315,,69,18,292,,79,05,171,*5F
$QZGSV,1,1,03,01,80,081,,02,38,147,,03,07,181,*51
$BDGSV,3,1,10,201,43,160,,203,43,206,,225,42,076,,223,40,149,*63
$BDGSV,3,2,10,202,29,238,,227,18,216,,205,10,258,,220,07,288,*6D
$BDGSV,3,3,10,229,07,320,,224,06,034,*63
$GAGSV,2,1,07,107,38,063,34,119,31,278,,127,28,123,,126,26,194,*66
$GAGSV,2,2,07,130,25,067,,112,22,313,,121,05,169,*61
$GPGSA,A,3,05,13,15,21,,,,,,,,,4.3,2.0,3.8*3C
$GNGSA,A,3,05,13,15,21,,,,,,,,,4.3,2.0,3.8*22
$GNGSA,A,3,67,68,77,,,,,,,,,,4.3,2.0,3.8*2D
$QZGSA,A,3,,,,,,,,,,,,,4.3,2.0,3.8*20
$IMGSA,A,3,,,,,,,,,,,,,4.3,2.0,3.8*2F
$BDGSA,A,3,,,,,,,,,,,,,4.3,2.0,3.8*2D
$GAGSA,A,3,107,,,,,,,,,,,,4.3,2.0,3.8*1B
$GPRMC,224643.26,A,3728.198922,N,12652.094993,E,000.0,,170219,,,A*76
$GPGGA,224644.26,3728.198922,N,12652.094993,E,1,08,1.6,58.3,M,18.1,M,,*58
$PGLOR,9,STA,224644.26,-0.013,0.000,-94,1,16,0,P,F,L,0,C,3,S,00000042,0,5,R,000832F4,TPEF,38,342124,LC,,,*7A
$GPGSV,3,1,09,15,74,330,32,13,51,042,36,21,47,293,33,05,33,104,39*73
$GPGSV,3,2,09,24,43,184,,20,20,305,,29,06,222,,28,05,063,*7E
$GPGSV,3,3,09,30,04,037,*43
$GLGSV,2,1,07,68,52,341,31,77,37,061,29,67,35,060,37,83,38,245,*62
$GLGSV,2,2,07,84,27,315,,69,18,292,,79,05,171,*5F
$QZGSV,1,1,03,01,80,081,,02,38,147,,03,07,181,*51
$BDGSV,3,1,10,201,43,160,,203,43,206,,225,42,076,,223,40,149,*63
$BDGSV,3,2,10,202,29,238,,227,18,216,,205,10,258,,220,07,288,*6D
$BDGSV,3,3,10,229,07,320,,224,06,034,*63
$GAGSV,2,1,07,107,38,063,34,119,31,278,,127,28,123,,126,26,194,*66
$GAGSV,2,2,07,130,25,067,,112,22,313,,121,05,169,*61
$GPGSA,A,3,05,13,15,21,,,,,,,,,4.3,2.0,3.8*3C
$GNGSA,A,3,05,13,15,21,,,,,,,,,4.3,2.0,3.8*22
$GNGSA,A,3,67,68,77,,,,,,,,,,4.3,2.0,3.8*2D
$QZGSA,A,3,,,,,,,,,,,,,4.3,2.0,3.8*20
$IMGSA,A,3,,,,,,,,,,,,,4.3,2.0,3.8*2F
$BDGSA,A,3,,,,,,,,,,,,,4.3,2.0,3.8*2D
$GAGSA,A,3,107,,,,,,,,,,,,4.3,2.0,3.8*1B
$GPRMC,224644.26,A,3728.198922,N,12652.094993,E,000.0,,170219,,,A*71
$GPGGA,224645.00,3728.198922,N,12652.094993,E,1,10,0.8,57.2,M,18.1,M,,*55
$PGLOR,9,STA,224645.00,-0.013,0.000,-94,1,8,0,P,F,L,0,C,3,S,00000042,0,5,R,000832F4,TPEF,38,342866,LC,,,*4F
$GPGSV,3,1,09,15,74,330,32,13,51,042,35,21,47,293,33,05,33,104,39*70
$GPGSV,3,2,09,24,43,184,,20,20,305,,29,06,222,,28,05,063,*7E
$GPGSV,3,3,09,30,04,037,*43
$GLGSV,2,1,07,68,52,341,31,83,38,245,27,77,37,061,29,67,35,060,37*67
$GLGSV,2,2,07,84,27,315,,69,18,292,,79,05,171,*5F
$QZGSV,1,1,03,01,80,081,28,02,38,147,,03,07,181,*5B
$BDGSV,3,1,10,203,43,206,,201,43,160,,225,42,076,,223,40,149,*63
$BDGSV,3,2,10,202,29,238,,227,18,216,,205,10,258,,220,07,288,*6D
$BDGSV,3,3,10,229,07,320,,224,06,034,*63
$GAGSV,2,1,07,107,38,063,34,119,31,278,,127,28,123,,126,26,194,*66
$GAGSV,2,2,07,130,25,067,,112,22,313,,121,05,169,*61
$GPGSA,A,3,05,13,15,21,,,,,,,,,4.3,2.0,3.8*3C
$GNGSA,A,3,05,13,15,21,,,,,,,,,4.3,2.0,3.8*22
$GNGSA,A,3,67,68,77,83,,,,,,,,,4.3,2.0,3.8*26
$QZGSA,A,3,01,,,,,,,,,,,,4.3,2.0,3.8*21
$IMGSA,A,3,,,,,,,,,,,,,4.3,2.0,3.8*2F
$BDGSA,A,3,,,,,,,,,,,,,4.3,2.0,3.8*2D
$GAGSA,A,3,107,,,,,,,,,,,,4.3,2.0,3.8*1B
$GPRMC,224645.00,A,3728.198922,N,12652.094993,E,000.0,,170219,,,A*74
$GPGGA,224646.00,3728.198922,N,12652.094993,E,1,10,0.8,55.5,M,18.1,M,,*53
$PGLOR,9,STA,224646.00,-0.013,0.000,-93,1,8,0,P,F,L,0,C,3,S,00000042,0,5,R,000832F4,TPEF,38,343866,LC,,,*4A
$GPGSV,3,1,09,15,74,330,35,13,51,042,38,21,47,293,33,05,33,104,39*7A
$GPGSV,3,2,09,24,43,184,,20,20,305,,29,06,222,,28,05,063,*7E
$GPGSV,3,3,09,30,04,037,*43
$GLGSV,2,1,07,68,52,341,32,83,38,245,,77,37,061,29,67,34,060,37*60
$GLGSV,2,2,07,84,27,315,21,69,18,292,,79,05,171,*5C
$QZGSV,1,1,03,01,80,081,28,02,38,147,,03,07,181,*5B
$BDGSV,3,1,10,203,43,206,,201,43,160,,225,42,076,,223,40,149,*63
$BDGSV,3,2,10,202,29,238,,227,18,216,,205,10,258,,220,07,288,*6D
$BDGSV,3,3,10,229,07,320,,224,06,034,*63
$GAGSV,2,1,07,107,38,063,33,119,31,278,,127,28,123,,126,26,194,*61
$GAGSV,2,2,07,130,25,067,,112,22,313,,121,05,169,*61
$GPGSA,A,3,05,13,15,21,,,,,,,,,3.3,1.8,2.8*31
$GNGSA,A,3,05,13,15,21,,,,,,,,,3.3,1.8,2.8*2F
$GNGSA,A,3,67,68,77,84,,,,,,,,,3.3,1.8,2.8*2C
$QZGSA,A,3,01,,,,,,,,,,,,3.3,1.8,2.8*2C
$IMGSA,A,3,,,,,,,,,,,,,3.3,1.8,2.8*22
$BDGSA,A,3,,,,,,,,,,,,,3.3,1.8,2.8*20
$GAGSA,A,3,107,,,,,,,,,,,,3.3,1.8,2.8*16
$GPRMC,224646.00,A,3728.198922,N,12652.094993,E,000.0,,170219,,,A*77
$GPGGA,224647.00,3728.198922,N,12652.094993,E,1,11,0.8,53.7,M,18.1,M,,*57
$PGLOR,9,STA,224647.00,-0.013,0.000,-93,1,8,0,P,F,L,0,C,3,S,00000042,0,5,R,000832F4,TPEF,38,344866,LC,,,*4C
$PGLOR,2,PFM,HAL,P,0,0,100,0,RF,-,-9,2.0,0,RTC,,P,STO,P,LTO,P,SW,P,,,OSC,,,*0B
$GPGSV,3,1,09,15,74,330,36,13,51,042,39,21,47,293,33,05,33,104,39*78
$GPGSV,3,2,09,24,43,184,,20,20,305,,29,06,222,,28,05,063,*7E
$GPGSV,3,3,09,30,04,037,*43
$GLGSV,2,1,07,68,52,341,33,83,38,245,24,77,37,061,29,67,34,060,37*67
$GLGSV,2,2,07,84,27,315,,69,18,292,25,79,05,171,*58
$QZGSV,1,1,03,01,80,081,27,02,38,147,,03,07,181,*54
$BDGSV,3,1,10,203,43,206,,201,43,160,,225,42,076,,223,40,149,*63
$BDGSV,3,2,10,202,29,238,,227,18,216,,205,10,258,,220,07,288,*6D
$BDGSV,3,3,10,229,07,320,,224,06,034,*63
$GAGSV,2,1,07,107,38,063,33,119,31,278,,127,28,123,,126,26,194,*61
$GAGSV,2,2,07,130,25,067,,112,22,313,,121,05,169,*61
$GPGSA,A,3,05,13,15,21,,,,,,,,,3.3,1.8,2.8*31
$GNGSA,A,3,05,13,15,21,,,,,,,,,3.3,1.8,2.8*2F
$GNGSA,A,3,67,68,69,77,83,,,,,,,,3.3,1.8,2.8*24
$QZGSA,A,3,01,,,,,,,,,,,,3.3,1.8,2.8*2C
$IMGSA,A,3,,,,,,,,,,,,,3.3,1.8,2.8*22
$BDGSA,A,3,,,,,,,,,,,,,3.3,1.8,2.8*20
$GAGSA,A,3,107,,,,,,,,,,,,3.3,1.8,2.8*16
$GPRMC,224647.00,A,3728.198922,N,12652.094993,E,000.0,,170219,,,A*76
$GPGGA,224648.00,3728.198922,N,12652.094993,E,1,12,0.6,52.1,M,18.1,M,,*52
$PGLOR,9,STA,224648.00,-0.013,0.000,-93,1,6,0,P,F,L,0,C,3,S,00000042,0,5,R,000832F4,TPEF,38,345866,LC,,,*4C
$GPGSV,3,1,09,15,74,330,36,13,51,042,38,21,47,293,34,05,33,104,39*7E
$GPGSV,3,2,09,24,43,184,,20,20,305,,29,06,222,,28,05,063,*7E
$GPGSV,3,3,09,30,04,037,*43
$GLGSV,2,1,07,68,52,341,33,83,38,245,24,77,37,061,29,67,34,060,37*67
$GLGSV,2,2,07,84,27,315,22,69,18,292,26,79,05,171,*5B
$QZGSV,1,1,03,01,80,081,27,02,38,147,,03,07,181,*54
$BDGSV,3,1,10,203,43,206,,201,43,160,,225,42,076,,223,40,149,*63
$BDGSV,3,2,10,202,29,238,,227,18,216,,205,10,258,,220,07,288,*6D
$BDGSV,3,3,10,229,07,320,,224,06,034,*63
$GAGSV,2,1,07,107,38,063,33,119,31,278,,127,28,123,,126,26,194,*61
$GAGSV,2,2,07,130,25,067,,112,22,313,,121,05,169,*61
$GPGSA,A,3,05,13,15,21,,,,,,,,,2.0,1.2,1.6*34
$GNGSA,A,3,05,13,15,21,,,,,,,,,2.0,1.2,1.6*2A
$GNGSA,A,3,67,68,69,77,83,84,,,,,,,2.0,1.2,1.6*2D
$QZGSA,A,3,01,,,,,,,,,,,,2.0,1.2,1.6*29
$IMGSA,A,3,,,,,,,,,,,,,2.0,1.2,1.6*27
$BDGSA,A,3,,,,,,,,,,,,,2.0,1.2,1.6*25
$GAGSA,A,3,107,,,,,,,,,,,,2.0,1.2,1.6*13
$GPRMC,224648.00,A,3728.198922,N,12652.094993,E,000.0,,170219,,,A*79
$GPGGA,224649.00,3728.198922,N,12652.094993,E,1,13,0.6,50.9,M,18.1,M,,*58
$PGLOR,9,STA,224649.00,-0.013,0.000,-92,1,6,0,P,F,L,0,C,3,S,00000042,0,5,R,000832F4,TPEF,38,346866,LC,,,*4F
$GPGSV,3,1,09,15,74,330,36,13,51,042,40,21,47,293,35,05,33,104,39*70
$GPGSV,3,2,09,24,43,184,,20,20,305,,29,06,222,,28,05,063,*7E
$GPGSV,3,3,09,30,04,037,*43
$GLGSV,2,1,07,68,52,341,33,83,38,245,23,77,37,061,29,67,34,060,37*60
$GLGSV,2,2,07,84,27,315,21,69,18,292,27,79,05,171,24*5F
$QZGSV,1,1,03,01,80,081,27,02,38,147,,03,07,181,*54
$BDGSV,3,1,10,201,43,160,,203,43,206,,225,42,076,,223,40,149,*63
$BDGSV,3,2,10,202,29,238,,227,18,216,,205,10,258,,220,07,288,*6D
$BDGSV,3,3,10,229,07,320,,224,06,034,*63
$GAGSV,2,1,07,107,38,063,33,119,31,278,,127,28,123,,126,26,194,*61
$GAGSV,2,2,07,130,25,067,,112,22,313,,121,05,169,*61
$GPGSA,A,3,05,13,15,21,,,,,,,,,2.2,1.2,1.8*38
$GNGSA,A,3,05,13,15,21,,,,,,,,,2.2,1.2,1.8*26
$GNGSA,A,3,67,68,69,77,79,83,84,,,,,,2.2,1.2,1.8*2F
$QZGSA,A,3,01,,,,,,,,,,,,2.2,1.2,1.8*25
$IMGSA,A,3,,,,,,,,,,,,,2.2,1.2,1.8*2B
$BDGSA,A,3,,,,,,,,,,,,,2.2,1.2,1.8*29
$GAGSA,A,3,107,,,,,,,,,,,,2.2,1.2,1.8*1F
$GPRMC,224649.00,A,3728.198922,N,12652.094993,E,000.0,,170219,,,A*78
$GPGGA,224650.00,3728.198922,N,12652.094993,E,1,14,0.6,48.3,M,18.1,M,,*54
$PGLOR,9,STA,224650.00,-0.013,0.000,-92,1,6,0,P,F,L,0,C,3,S,00000042,0,5,R,000832F4,TPEF,38,347866,LC,,,*46
$GPGSV,3,1,09,15,74,330,36,13,51,042,40,21,47,293,35,05,32,104,39*71
$GPGSV,3,2,09,24,43,184,,20,20,305,,29,06,222,,28,05,063,*7E
$GPGSV,3,3,09,30,04,037,*43
$GLGSV,2,1,07,68,52,341,33,83,38,245,22,77,37,061,29,67,34,060,37*61
$GLGSV,2,2,07,84,28,315,22,69,18,292,26,79,05,171,24*52
$QZGSV,1,1,03,01,80,081,27,02,38,147,21,03,07,181,*57
$BDGSV,3,1,10,201,43,160,,203,43,206,,225,42,076,,223,40,149,*63
$BDGSV,3,2,10,202,29,238,,227,18,216,,205,10,258,,220,07,288,*6D
$BDGSV,3,3,10,229,07,320,,224,06,034,*63
$GAGSV,2,1,07,107,38,063,33,119,31,278,,127,28,123,,126,26,194,*61
$GAGSV,2,2,07,130,25,067,,112,22,313,,121,05,169,*61
$GPGSA,A,3,05,13,15,21,,,,,,,,,2.0,1.2,1.6*34
$GNGSA,A,3,05,13,15,21,,,,,,,,,2.0,1.2,1.6*2A
$GNGSA,A,3,67,68,69,77,79,83,84,,,,,,2.0,1.2,1.6*23
$QZGSA,A,3,01,02,,,,,,,,,,,2.0,1.2,1.6*2B
$IMGSA,A,3,,,,,,,,,,,,,2.0,1.2,1.6*27
$BDGSA,A,3,,,,,,,,,,,,,2.0,1.2,1.6*25
$GAGSA,A,3,107,,,,,,,,,,,,2.0,1.2,1.6*13
$GPRMC,224650.00,A,3728.198922,N,12652.094993,E,000.0,,170219,,,A*70
$GPGGA,224651.00,3728.198922,N,12652.094993,E,1,14,0.6,46.3,M,18.1,M,,*5B
$PGLOR,9,STA,224651.00,-0.013,0.000,-92,1,6,0,P,F,L,0,C,3,S,00000042,0,5,R,000832F4,TPEF,38,348866,LC,,,*48
$GPGSV,3,1,09,15,74,330,36,13,51,042,40,21,47,293,35,05,32,104,38*70
$GPGSV,3,2,09,24,43,184,,20,20,305,,29,06,222,,28,05,063,*7E
$GPGSV,3,3,09,30,04,037,*43
$GLGSV,2,1,07,68,52,341,34,83,38,245,22,77,37,061,29,67,34,060,37*66
$GLGSV,2,2,07,84,28,315,22,69,18,292,26,79,05,171,24*52
$QZGSV,1,1,03,01,80,081,27,02,38,147,21,03,07,181,*57
$BDGSV,3,1,10,201,43,160,,203,43,206,,225,42,076,,223,40,149,*63
$BDGSV,3,2,10,202,29,238,,227,18,216,,205,10,258,,220,07,288,*6D
$BDGSV,3,3,10,229,07,320,,224,06,034,*63
$GAGSV,2,1,07,107,38,063,32,119,31,278,,127,28,123,,126,26,194,*60
$GAGSV,2,2,07,130,25,067,,112,22,313,,121,05,169,*61
$GPGSA,A,3,05,13,15,21,,,,,,,,,2.0,1.2,1.6*34
$GNGSA,A,3,05,13,15,21,,,,,,,,,2.0,1.2,1.6*2A
$GNGSA,A,3,67,68,69,77,79,83,84,,,,,,2.0,1.2,1.6*23
$QZGSA,A,3,01,02,,,,,,,,,,,2.0,1.2,1.6*2B
$IMGSA,A,3,,,,,,,,,,,,,2.0,1.2,1.6*27
$BDGSA,A,3,,,,,,,,,,,,,2.0,1.2,1.6*25
$GAGSA,A,3,107,,,,,,,,,,,,2.0,1.2,1.6*13
$GPRMC,224651.00,A,3728.198922,N,12652.094993,E,000.0,,170219,,,A*71
$GPGGA,224652.00,3728.198922,N,12652.094993,E,1,13,0.6,44.0,M,18.1,M,,*5E
$PGLOR,9,STA,224652.00,-0.013,0.000,-92,1,6,0,P,F,L,0,C,3,S,00000042,0,5,R,000832F4,TPEF,38,349866,LC,,,*4A
$GPGSV,3,1,09,15,74,330,36,13,51,042,39,21,47,293,36,05,32,104,39*7C
$GPGSV,3,2,09,24,43,184,,20,20,305,,29,06,222,,28,05,063,*7E
$GPGSV,3,3,09,30,04,037,*43
$GLGSV,2,1,07,68,52,341,34,83,38,245,21,77,37,061,29,67,34,060,37*65
$GLGSV,2,2,07,84,28,315,22,69,18,292,26,79,05,171,24*52
$QZGSV,1,1,03,01,80,081,26,02,38,147,20,03,07,181,*57
$BDGSV,3,1,10,201,43,160,,203,43,206,,225,42,076,,223,40,149,*63
$BDGSV,3,2,10,202,29,238,,227,18,216,,205,10,258,,220,07,288,*6D
$BDGSV,3,3,10,229,07,320,,224,06,034,*63
$GAGSV,2,1,07,107,38,063,32,119,31,278,,127,28,123,,126,26,194,*60
$GAGSV,2,2,07,130,25,067,,112,22,313,,121,05,169,*61
$GPGSA,A,3,05,13,15,21,,,,,,,,,2.0,1.2,1.6*34
$GNGSA,A,3,05,13,15,21,,,,,,,,,2.0,1.2,1.6*2A
$GNGSA,A,3,67,68,69,77,79,83,84,,,,,,2.0,1.2,1.6*23
$QZGSA,A,3,01,,,,,,,,,,,,2.0,1.2,1.6*29
$IMGSA,A,3,,,,,,,,,,,,,2.0,1.2,1.6*27
$BDGSA,A,3,,,,,,,,,,,,,2.0,1.2,1.6*25
$GAGSA,A,3,107,,,,,,,,,,,,2.0,1.2,1.6*13
$GPRMC,224652.00,A,3728.198922,N,12652.094993,E,000.0,,170219,,,A*72
$GPGGA,224653.00,3728.198922,N,12652.094993,E,1,13,0.8,41.1,M,18.1,M,,*55
$PGLOR,9,STA,224653.00,-0.013,0.000,-92,1,8,0,P,F,L,0,C,3,S,00000042,0,5,R,000832F4,TPEF,38,350866,LC,,,*4D
$PGLOR,2,PFM,HAL,P,0,0,100,0,RF,-,-9,4.3,0,RTC,,P,STO,P,LTO,P,SW,P,,,OSC,P,*72
$GPGSV,3,1,09,15,74,330,36,13,51,042,39,21,47,293,36,05,32,104,39*7C
$GPGSV,3,2,09,24,43,184,,20,20,305,,29,06,222,,28,05,063,*7E
$GPGSV,3,3,09,30,04,037,*43
$GLGSV,2,1,07,68,52,341,33,83,38,245,21,77,37,060,29,67,34,060,36*62
$GLGSV,2,2,07,84,28,315,22,69,18,292,25,79,05,171,23*56
$QZGSV,1,1,03,01,80,081,26,02,38,147,19,03,07,181,*5D
$BDGSV,3,1,10,201,43,160,,203,43,206,,225,42,076,,223,40,149,*63
$BDGSV,3,2,10,202,29,238,,227,18,216,,205,10,258,,220,07,288,*6D
$BDGSV,3,3,10,229,07,320,,224,06,034,*63
$GAGSV,2,1,07,107,38,063,32,119,31,278,,127,28,123,,126,26,194,*60
$GAGSV,2,2,07,130,25,067,,112,22,313,,121,05,169,*61
$GPGSA,A,3,05,13,15,21,,,,,,,,,2.3,1.6,1.6*33
$GNGSA,A,3,05,13,15,21,,,,,,,,,2.3,1.6,1.6*2D
$GNGSA,A,3,67,68,69,77,79,83,84,,,,,,2.3,1.6,1.6*24
$QZGSA,A,3,01,,,,,,,,,,,,2.3,1.6,1.6*2E
$IMGSA,A,3,,,,,,,,,,,,,2.3,1.6,1.6*20
$BDGSA,A,3,,,,,,,,,,,,,2.3,1.6,1.6*22
$GAGSA,A,3,107,,,,,,,,,,,,2.3,1.6,1.6*14
$GPRMC,224653.00,A,3728.198922,N,12652.094993,E,000.0,,170219,,,A*73
$GPGGA,224654.00,3728.198922,N,12652.094993,E,1,13,0.8,37.7,M,18.1,M,,*55
$PGLOR,9,STA,224654.00,-0.013,0.000,-92,1,8,0,P,F,L,0,C,3,S,00000042,0,5,R,000832F4,TPEF,38,351866,LC,,,*4B
$GPGSV,3,1,09,15,74,330,36,13,51,042,39,21,47,293,36,05,32,104,39*7C
$GPGSV,3,2,09,24,43,184,,20,20,305,,29,06,222,,28,05,063,*7E
$GPGSV,3,3,09,30,04,037,*43
$GLGSV,2,1,07,68,52,341,33,83,38,245,21,77,37,060,29,67,34,060,37*63
$GLGSV,2,2,07,84,28,315,21,69,18,292,25,79,05,171,23*55
$QZGSV,1,1,03,01,80,081,26,02,38,147,18,03,07,181,*5C
$BDGSV,3,1,10,201,43,160,,203,43,206,,225,42,076,,223,40,149,*63
$BDGSV,3,2,10,202,29,238,,227,18,216,,205,10,258,,220,07,288,*6D
$BDGSV,3,3,10,229,07,320,,224,06,034,*63
$GAGSV,2,1,07,107,38,063,32,119,31,278,,127,28,123,,126,26,194,*60
$GAGSV,2,2,07,130,25,067,,112,22,313,,121,05,169,*61
$GPGSA,A,3,05,13,15,21,,,,,,,,,2.3,1.6,1.6*33
$GNGSA,A,3,05,13,15,21,,,,,,,,,2.3,1.6,1.6*2D
$GNGSA,A,3,67,68,69,77,79,83,84,,,,,,2.3,1.6,1.6*24
$QZGSA,A,3,01,,,,,,,,,,,,2.3,1.6,1.6*2E
$IMGSA,A,3,,,,,,,,,,,,,2.3,1.6,1.6*20
$BDGSA,A,3,,,,,,,,,,,,,2.3,1.6,1.6*22
$GAGSA,A,3,107,,,,,,,,,,,,2.3,1.6,1.6*14
$GPRMC,224654.00,A,3728.198922,N,12652.094993,E,000.0,,170219,,,A*74
$GPGGA,224655.00,3728.198922,N,12652.094993,E,1,13,0.6,35.0,M,18.1,M,,*5F
$PGLOR,9,STA,224655.00,-0.013,0.000,-92,1,6,0,P,F,L,0,C,3,S,00000042,0,5,R,000832F4,TPEF,38,352866,LC,,,*47
$GPGSV,3,1,09,15,74,330,36,13,51,042,38,21,47,293,36,05,32,104,39*7D
$GPGSV,3,2,09,24,43,184,,20,20,305,,29,06,222,,28,05,063,*7E
$GPGSV,3,3,09,30,04,037,*43
$GLGSV,2,1,07,68,52,341,33,83,38,245,21,77,37,060,29,67,34,060,37*63
$GLGSV,2,2,07,84,28,315,20,69,18,292,25,79,05,171,23*54
$QZGSV,1,1,03,01,80,081,26,02,38,147,17,03,07,181,*53
$BDGSV,3,1,10,201,43,160,,203,43,206,,225,42,076,,223,40,149,*63
$BDGSV,3,2,10,202,29,238,,227,18,216,,205,10,258,,220,07,288,*6D
$BDGSV,3,3,10,229,07,320,,224,06,034,*63
$GAGSV,2,1,07,107,38,063,32,119,31,278,,127,28,123,,126,26,194,*60
$GAGSV,2,2,07,130,25,067,,112,22,313,,121,05,169,*61
$GPGSA,A,3,05,13,15,21,,,,,,,,,2.0,1.2,1.6*34
$GNGSA,A,3,05,13,15,21,,,,,,,,,2.0,1.2,1.6*2A
$GNGSA,A,3,67,68,69,77,79,83,84,,,,,,2.0,1.2,1.6*23
$QZGSA,A,3,01,,,,,,,,,,,,2.0,1.2,1.6*29
$IMGSA,A,3,,,,,,,,,,,,,2.0,1.2,1.6*27
$BDGSA,A,3,,,,,,,,,,,,,2.0,1.2,1.6*25
$GAGSA,A,3,107,,,,,,,,,,,,2.0,1.2,1.6*13
$GPRMC,224655.00,A,3728.198922,N,12652.094993,E,000.0,,170219,,,A*75
$GPGGA,224656.00,3728.198922,N,12652.094993,E,1,13,0.6,32.8,M,18.1,M,,*53
$PGLOR,9,STA,224656.00,-0.013,0.000,-92,1,6,0,P,F,L,0,C,3,S,00000042,0,5,R,000832F4,TPEF,38,353866,LC,,,*45
$GPGSV,3,1,09,15,74,330,36,13,51,042,38,21,47,293,36,05,32,104,39*7D
$GPGSV,3,2,09,24,43,184,,20,20,305,,29,06,222,,28,05,063,*7E
$GPGSV,3,3,09,30,04,037,*43
$GLGSV,2,1,07,68,52,341,33,83,38,245,22,77,37,060,29,67,34,060,37*60
$GLGSV,2,2,07,84,28,315,19,69,18,292,28,79,05,171,23*53
$QZGSV,1,1,03,01,80,081,26,02,38,147,16,03,07,181,*52
$BDGSV,3,1,10,201,43,160,,203,43,206,,225,42,076,,223,40,149,*63
$BDGSV,3,2,10,202,29,238,,227,18,216,,205,10,258,,220,07,288,*6D
$BDGSV,3,3,10,229,07,320,,224,06,034,*63
$GAGSV,2,1,07,107,38,063,32,119,31,278,,127,28,123,,126,26,194,*60
$GAGSV,2,2,07,130,25,067,,112,22,313,,121,05,169,*61
$GPGSA,A,3,05,13,15,21,,,,,,,,,2.0,1.2,1.6*34
$GNGSA,A,3,05,13,15,21,,,,,,,,,2.0,1.2,1.6*2A
$GNGSA,A,3,67,68,69,77,79,83,84,,,,,,2.0,1.2,1.6*23
$QZGSA,A,3,01,,,,,,,,,,,,2.0,1.2,1.6*29
$IMGSA,A,3,,,,,,,,,,,,,2.0,1.2,1.6*27
$BDGSA,A,3,,,,,,,,,,,,,2.0,1.2,1.6*25
$GAGSA,A,3,107,,,,,,,,,,,,2.0,1.2,1.6*13
$GPRMC,224656.00,A,3728.198922,N,12652.094993,E,000.0,,170219,,,A*76
$GPGGA,224657.00,3728.198922,N,12652.094993,E,1,15,0.8,31.1,M,18.1,M,,*50
$PGLOR,9,STA,224657.00,-0.013,0.000,-92,1,8,0,P,F,L,0,C,3,S,00000042,0,5,R,000832F4,TPEF,38,354866,LC,,,*4D
$GPGSV,3,1,09,15,74,330,37,13,51,042,38,21,47,293,36,24,43,184,22*7B
$GPGSV,3,2,09,05,32,104,39,20,20,305,,29,06,222,,28,05,063,*79
$GPGSV,3,3,09,30,04,037,*43
$GLGSV,2,1,07,68,52,341,33,83,38,245,24,77,37,060,29,67,34,060,37*66
$GLGSV,2,2,07,84,28,315,19,69,18,292,29,79,05,171,23*52
$QZGSV,1,1,03,01,80,081,25,02,38,147,16,03,07,181,*51
$BDGSV,3,1,10,201,43,160,,203,43,206,,225,42,076,,223,40,149,*63
$BDGSV,3,2,10,202,29,238,,227,18,216,,205,10,258,,220,07,288,*6D
$BDGSV,3,3,10,229,07,320,,224,06,034,*63
$GAGSV,2,1,07,107,38,063,32,119,31,278,,127,28,123,,126,26,194,*60
$GAGSV,2,2,07,130,25,067,,112,22,313,,121,05,169,*61
$GPGSA,A,3,05,13,15,21,24,,,,,,,,2.3,1.6,1.6*35
$GNGSA,A,3,05,13,15,21,24,,,,,,,,2.3,1.6,1.6*2B
$GNGSA,A,3,67,68,69,77,79,83,84,,,,,,2.3,1.6,1.6*24
$QZGSA,A,3,01,02,,,,,,,,,,,2.3,1.6,1.6*2C
$IMGSA,A,3,,,,,,,,,,,,,2.3,1.6,1.6*20
$BDGSA,A,3,,,,,,,,,,,,,2.3,1.6,1.6*22
$GAGSA,A,3,107,,,,,,,,,,,,2.3,1.6,1.6*14
$GPRMC,224657.00,A,3728.198922,N,12652.094993,E,000.0,,170219,,,A*77
$GPGGA,224658.00,3728.198922,N,12652.094993,E,1,15,0.8,30.0,M,18.1,M,,*5F
$PGLOR,9,STA,224658.00,-0.013,0.000,-92,1,8,0,P,F,L,0,C,3,S,00000042,0,5,R,000832F4,TPEF,38,355866,LC,,,*43
$GPGSV,3,1,09,15,74,330,37,13,51,042,38,21,47,293,36,24,43,184,22*7B
$GPGSV,3,2,09,05,32,104,39,20,20,305,,29,06,222,,28,05,063,*79
$GPGSV,3,3,09,30,04,037,*43
$GLGSV,2,1,07,68,52,341,33,83,38,245,24,77,37,060,30,67,34,060,37*6E
$GLGSV,2,2,07,84,28,315,18,69,18,292,29,79,05,171,23*53
$QZGSV,1,1,03,01,80,081,25,02,38,147,16,03,07,181,*51
$BDGSV,3,1,10,201,43,160,,203,43,206,,225,42,076,,223,40,149,*63
$BDGSV,3,2,10,202,29,238,,227,18,216,,205,10,258,,220,07,288,*6D
$BDGSV,3,3,10,229,07,320,,224,06,034,*63
$GAGSV,2,1,07,107,38,063,32,119,31,278,,127,28,123,,126,26,194,*60
$GAGSV,2,2,07,130,25,067,,112,22,313,,121,05,169,*61
$GPGSA,A,3,05,13,15,21,24,,,,,,,,2.3,1.6,1.6*35
$GNGSA,A,3,05,13,15,21,24,,,,,,,,2.3,1.6,1.6*2B
$GNGSA,A,3,67,68,69,77,79,83,84,,,,,,2.3,1.6,1.6*24
$QZGSA,A,3,01,02,,,,,,,,,,,2.3,1.6,1.6*2C
$IMGSA,A,3,,,,,,,,,,,,,2.3,1.6,1.6*20
$BDGSA,A,3,,,,,,,,,,,,,2.3,1.6,1.6*22
$GAGSA,A,3,107,,,,,,,,,,,,2.3,1.6,1.6*14
$GPRMC,224658.00,A,3728.198922,N,12652.094993,E,000.0,,170219,,,A*78
$GPGGA,224659.00,3728.198922,N,12652.094993,E,1,15,0.8,29.4,M,18.1,M,,*52
$PGLOR,9,STA,224659.00,-0.013,0.000,-92,1,8,0,P,F,L,0,C,3,S,00000042,0,5,R,000832F4,TPEF,38,356866,LC,,,*41
$GPGSV,3,1,09,15,74,330,37,13,51,042,38,21,47,293,37,24,43,184,21*79
$GPGSV,3,2,09,05,32,104,39,20,20,305,,29,06,222,,28,05,063,*79
$GPGSV,3,3,09,30,04,037,*43
$GLGSV,2,1,07,68,52,341,33,83,38,245,24,77,37,060,30,67,34,060,37*6E
$GLGSV,2,2,07,84,28,315,18,69,18,292,29,79,05,171,22*52
$QZGSV,1,1,03,01,80,081,25,02,38,147,15,03,07,181,*52
$BDGSV,3,1,10,201,43,160,,203,43,206,,225,42,076,,223,40,149,*63
$BDGSV,3,2,10,202,29,238,,227,18,216,,205,10,258,,220,07,288,*6D
$BDGSV,3,3,10,229,07,320,,224,06,034,*63
$GAGSV,2,1,07,107,38,063,32,119,31,278,,127,28,123,,126,26,194,*60
$GAGSV,2,2,07,130,25,067,,112,22,313,,121,05,169,*61
$GPGSA,A,3,05,13,15,21,24,,,,,,,,2.3,1.6,1.6*35
$GNGSA,A,3,05,13,15,21,24,,,,,,,,2.3,1.6,1.6*2B
$GNGSA,A,3,67,68,69,77,79,83,84,,,,,,2.3,1.6,1.6*24
$QZGSA,A,3,01,02,,,,,,,,,,,2.3,1.6,1.6*2C
$IMGSA,A,3,,,,,,,,,,,,,2.3,1.6,1.6*20
$BDGSA,A,3,,,,,,,,,,,,,2.3,1.6,1.6*22
$GAGSA,A,3,107,,,,,,,,,,,,2.3,1.6,1.6*14
$GPRMC,224659.00,A,3728.198922,N,12652.094993,E,000.0,,170219,,,A*79
$GPGGA,224700.00,3728.203331,N,12652.096878,E,1,14,0.8,27.8,M,18.1,M,,*53
$PGLOR,9,STA,224700.00,-0.013,0.000,-92,1,8,0,P,F,L,0,C,3,S,00000042,0,5,R,000832F4,TPEF,38,357866,LC,,,*4D
$GPGSV,3,1,09,15,74,330,37,13,51,042,37,21,47,293,37,24,43,184,20*77
$GPGSV,3,2,09,05,32,104,39,20,20,305,,29,06,222,,28,05,063,*79
$GPGSV,3,3,09,30,04,037,*43
$GLGSV,2,1,07,68,52,341,32,83,38,245,24,77,37,060,30,67,34,060,37*6F
$GLGSV,2,2,07,84,28,315,18,69,18,292,29,79,05,171,22*52
$QZGSV,1,1,03,01,80,081,25,02,38,147,15,03,07,181,*52
$BDGSV,3,1,10,201,43,160,,203,43,206,,225,42,076,,223,40,149,*63
$BDGSV,3,2,10,202,29,238,,227,18,216,,205,10,258,,220,07,288,*6D
$BDGSV,3,3,10,229,07,320,,224,06,034,*63
$GAGSV,2,1,07,107,38,063,32,119,31,278,,127,28,123,,126,26,194,*60
$GAGSV,2,2,07,130,25,067,,112,22,313,,121,05,169,*61
$GPGSA,A,3,05,13,15,21,,,,,,,,,3.3,1.8,2.8*31
$GNGSA,A,3,05,13,15,21,,,,,,,,,3.3,1.8,2.8*2F
$GNGSA,A,3,67,68,69,77,79,83,84,,,,,,3.3,1.8,2.8*26
$QZGSA,A,3,01,02,,,,,,,,,,,3.3,1.8,2.8*2E
$IMGSA,A,3,,,,,,,,,,,,,3.3,1.8,2.8*22
$BDGSA,A,3,,,,,,,,,,,,,3.3,1.8,2.8*20
$GAGSA,A,3,107,,,,,,,,,,,,3.3,1.8,2.8*16
$GPRMC,224700.00,A,3728.203331,N,12652.096878,E,000.0,,170219,,,A*7B
$GPGGA,224701.00,3728.203331,N,12652.096878,E,1,14,0.8,27.8,M,18.1,M,,*52
$PGLOR,9,STA,224701.00,-0.013,0.000,-92,1,8,0,P,F,L,0,C,3,S,00000042,0,5,R,000832F4,TPEF,38,358866,LC,,,*43
$GPGSV,3,1,09,15,74,330,37,13,51,042,37,21,47,293,37,24,43,184,19*7D
$GPGSV,3,2,09,05,32,104,39,20,20,305,,29,06,222,,28,05,063,*79
$GPGSV,3,3,09,30,04,037,*43
$GLGSV,2,1,07,68,52,341,32,83,38,245,24,77,37,060,30,67,34,060,38*60
$GLGSV,2,2,07,84,28,315,17,69,18,292,29,79,05,171,21*5E
$QZGSV,1,1,03,01,80,081,25,02,38,147,15,03,07,181,*52
$BDGSV,3,1,10,201,43,160,,203,43,206,,225,42,076,,223,40,149,*63
$BDGSV,3,2,10,202,29,238,,227,18,216,,205,10,258,,220,07,288,*6D
$BDGSV,3,3,10,229,07,320,,224,06,034,*63
$GAGSV,2,1,07,107,38,063,32,119,31,278,,127,28,123,,126,26,194,*60
$GAGSV,2,2,07,130,25,067,,112,22,313,,121,05,169,*61
$GPGSA,A,3,05,13,15,21,,,,,,,,,2.6,1.6,2.0*33
$GNGSA,A,3,05,13,15,21,,,,,,,,,2.6,1.6,2.0*2D
$GNGSA,A,3,67,68,69,77,79,83,84,,,,,,2.6,1.6,2.0*24
$QZGSA,A,3,01,02,,,,,,,,,,,2.6,1.6,2.0*2C
$IMGSA,A,3,,,,,,,,,,,,,2.6,1.6,2.0*20
$BDGSA,A,3,,,,,,,,,,,,,2.6,1.6,2.0*22
$GAGSA,A,3,107,,,,,,,,,,,,2.6,1.6,2.0*14
$GPRMC,224701.00,A,3728.203331,N,12652.096878,E,000.0,,170219,,,A*7A
$GPGGA,224702.00,3728.203331,N,12652.096878,E,1,14,0.8,26.6,M,18.1,M,,*5E
$PGLOR,9,STA,224702.00,-0.013,0.000,-92,1,8,0,P,F,L,0,C,3,S,00000042,0,5,R,000832F4,TPEF,38,359866,LC,,,*41
$GPGSV,3,1,09,15,74,330,37,13,51,042,37,21,47,293,37,24,43,184,18*7C
$GPGSV,3,2,09,05,32,104,39,20,20,305,,29,06,222,,28,05,063,*79
$GPGSV,3,3,09,30,04,037,*43
$GLGSV,2,1,07,68,52,341,32,83,38,245,23,77,37,060,30,67,34,060,38*67
$GLGSV,2,2,07,84,28,315,17,69,18,292,29,79,05,171,21*5E
$QZGSV,1,1,03,01,80,081,25,02,38,147,15,03,07,181,*52
$BDGSV,3,1,10,201,43,160,,203,43,206,,225,42,076,,223,40,149,*63
$BDGSV,3,2,10,202,29,238,,227,18,216,,205,10,258,,220,07,288,*6D
$BDGSV,3,3,10,229,07,320,,224,06,034,*63
$GAGSV,2,1,07,107,38,063,32,119,31,278,,127,28,123,,126,26,194,*60
$GAGSV,2,2,07,130,25,067,,112,22,313,,121,05,169,*61
$GPGSA,A,3,05,13,15,21,,,,,,,,,2.6,1.6,2.0*33
$GNGSA,A,3,05,13,15,21,,,,,,,,,2.6,1.6,2.0*2D
$GNGSA,A,3,67,68,69,77,79,83,84,,,,,,2.6,1.6,2.0*24
$QZGSA,A,3,01,02,,,,,,,,,,,2.6,1.6,2.0*2C
$IMGSA,A,3,,,,,,,,,,,,,2.6,1.6,2.0*20
$BDGSA,A,3,,,,,,,,,,,,,2.6,1.6,2.0*22
$GAGSA,A,3,107,,,,,,,,,,,,2.6,1.6,2.0*14
$GPRMC,224702.00,A,3728.203331,N,12652.096878,E,000.0,,170219,,,A*79
$GPGGA,224703.00,3728.203331,N,12652.096878,E,1,14,0.8,25.5,M,18.1,M,,*5F
$PGLOR,9,STA,224703.00,-0.013,0.000,-92,1,8,0,P,F,L,0,C,3,S,00000042,0,5,R,000832F4,TPEF,38,360866,LC,,,*4A
$PGLOR,2,PFM,HAL,P,0,0,100,0,RF,-,-9,6.0,0,RTC,,P,STO,P,LTO,P,SW,P,,,OSC,PPP*5F
$GPGSV,3,1,09,15,74,330,37,13,51,042,37,21,47,293,37,24,43,184,18*7C
$GPGSV,3,2,09,05,32,104,40,20,20,305,,29,06,222,,28,05,063,*77
$GPGSV,3,3,09,30,04,037,*43
$GLGSV,2,1,07,68,52,341,31,83,38,245,22,77,37,060,30,67,34,060,37*6A
$GLGSV,2,2,07,84,28,315,17,69,18,292,28,79,05,171,20*5E
$QZGSV,1,1,03,01,80,081,25,02,38,147,15,03,07,181,*52
$BDGSV,3,1,10,201,43,160,,203,43,206,,225,42,076,,223,40,149,*63
$BDGSV,3,2,10,202,29,238,,227,18,216,,205,10,258,,220,07,288,*6D
$BDGSV,3,3,10,229,07,320,,224,06,034,*63
$GAGSV,2,1,07,107,38,063,32,119,31,278,,127,28,123,,126,26,194,*60
$GAGSV,2,2,07,130,25,067,,112,22,313,,121,05,169,*61
$GPGSA,A,3,05,13,15,21,,,,,,,,,2.6,1.6,2.0*33
$GNGSA,A,3,05,13,15,21,,,,,,,,,2.6,1.6,2.0*2D
$GNGSA,A,3,67,68,69,77,79,83,84,,,,,,2.6,1.6,2.0*24
$QZGSA,A,3,01,02,,,,,,,,,,,2.6,1.6,2.0*2C
$IMGSA,A,3,,,,,,,,,,,,,2.6,1.6,2.0*20
$BDGSA,A,3,,,,,,,,,,,,,2.6,1.6,2.0*22
$GAGSA,A,3,107,,,,,,,,,,,,2.6,1.6,2.0*14
$GPRMC,224703.00,A,3728.203331,N,12652.096878,E,000.0,,170219,,,A*78
$GPGGA,224704.00,3728.203331,N,12652.096878,E,1,14,0.8,24.9,M,18.1,M,,*55
$PGLOR,9,STA,224704.00,-0.013,0.000,-92,1,8,0,P,F,L,0,C,3,S,00000042,0,5,R,000832F4,TPEF,38,361866,LC,,,*4C
$GPGSV,3,1,09,15,74,330,37,13,51,042,37,21,47,293,37,24,43,184,17*73
$GPGSV,3,2,09,05,32,104,40,20,20,305,,29,06,222,,28,05,063,*77
$GPGSV,3,3,09,30,04,037,*43
$GLGSV,2,1,07,68,52,341,31,83,38,245,22,77,37,060,30,67,34,060,37*6A
$GLGSV,2,2,07,84,28,315,19,69,18,292,27,79,05,171,20*5F
$QZGSV,1,1,03,01,80,081,25,02,38,147,15,03,07,181,*52
$BDGSV,3,1,10,201,43,160,,203,43,206,,225,42,076,,223,40,149,*63
$BDGSV,3,2,10,202,29,238,,227,18,216,,205,10,258,,220,07,288,*6D
$BDGSV,3,3,10,229,07,320,,224,06,034,*63
$GAGSV,2,1,07,107,38,063,32,119,31,278,,127,28,123,,126,26,194,*60
$GAGSV,2,2,07,130,25,067,,112,22,313,,121,05,169,*61
$GPGSA,A,3,05,13,15,21,,,,,,,,,2.2,1.5,1.6*31
$GNGSA,A,3,05,13,15,21,,,,,,,,,2.2,1.5,1.6*2F
$GNGSA,A,3,67,68,69,77,79,83,84,,,,,,2.2,1.5,1.6*26
$QZGSA,A,3,01,02,,,,,,,,,,,2.2,1.5,1.6*2E
$IMGSA,A,3,,,,,,,,,,,,,2.2,1.5,1.6*22
$BDGSA,A,3,,,,,,,,,,,,,2.2,1.5,1.6*20
$GAGSA,A,3,107,,,,,,,,,,,,2.2,1.5,1.6*16
$GPRMC,224704.00,A,3728.203331,N,12652.096878,E,000.0,,170219,,,A*7F
$GPGGA,224705.00,3728.203331,N,12652.096878,E,1,15,0.8,24.1,M,18.1,M,,*5D
$PGLOR,9,STA,224705.00,-0.013,0.000,-92,1,8,0,P,F,L,0,C,3,S,00000042,0,5,R,000832F4,TPEF,38,362866,LC,,,*4E
$GPGSV,3,1,09,15,74,330,36,13,51,042,37,21,47,293,37,24,43,184,16*73
$GPGSV,3,2,09,05,32,104,40,20,20,305,22,29,06,222,,28,05,063,*77
$GPGSV,3,3,09,30,04,037,*43
$GLGSV,2,1,07,68,52,341,31,83,38,245,23,77,37,060,30,67,34,060,37*6B
$GLGSV,2,2,07,84,28,315,21,69,18,292,26,79,05,171,19*5F
$QZGSV,1,1,03,01,80,081,25,02,38,147,15,03,07,181,*52
$BDGSV,3,1,10,203,43,206,,201,43,160,,225,42,076,,223,40,149,*63
$BDGSV,3,2,10,202,29,238,,227,18,216,,205,10,258,,220,07,288,*6D
$BDGSV,3,3,10,229,07,320,,224,06,034,*63
$GAGSV,2,1,07,107,38,063,32,119,31,278,,127,28,123,,126,26,194,*60
$GAGSV,2,2,07,130,25,067,,112,22,313,,121,05,169,*61
$GPGSA,A,3,05,13,15,20,21,,,,,,,,2.3,1.6,1.6*31
$GNGSA,A,3,05,13,15,20,21,,,,,,,,2.3,1.6,1.6*2F
$GNGSA,A,3,67,68,69,77,79,83,84,,,,,,2.3,1.6,1.6*24
$QZGSA,A,3,01,02,,,,,,,,,,,2.3,1.6,1.6*2C
$IMGSA,A,3,,,,,,,,,,,,,2.3,1.6,1.6*20
$BDGSA,A,3,,,,,,,,,,,,,2.3,1.6,1.6*22
$GAGSA,A,3,107,,,,,,,,,,,,2.3,1.6,1.6*14
$GPRMC,224705.00,A,3728.203331,N,12652.096878,E,000.0,,170219,,,A*7E
$GPGGA,224706.00,3728.203331,N,12652.096878,E,1,14,0.8,23.3,M,18.1,M,,*5A
$PGLOR,9,STA,224706.00,-0.013,0.000,-92,1,8,0,P,F,L,0,C,3,S,00000042,0,5,R,000832F4,TPEF,38,363866,LC,,,*4C
$GPGSV,3,1,09,15,74,330,36,13,51,042,37,21,47,293,37,24,43,184,15*70
$GPGSV,3,2,09,05,32,104,40,20,20,305,22,29,06,222,,28,05,063,*77
$GPGSV,3,3,09,30,04,037,*43
$GLGSV,2,1,07,68,52,341,31,83,38,245,25,77,37,060,30,67,34,060,37*6D
$GLGSV,2,2,07,84,28,315,21,69,18,292,25,79,05,171,19*5C
$QZGSV,1,1,03,01,80,081,25,02,38,147,15,03,07,181,*52
$BDGSV,3,1,10,203,43,206,,201,43,160,,225,42,076,,223,40,149,*63
$BDGSV,3,2,10,202,29,238,,227,18,216,,205,10,258,,220,07,288,*6D
$BDGSV,3,3,10,229,07,320,,224,06,034,*63
$GAGSV,2,1,07,107,38,063,32,119,31,278,,127,28,123,,126,26,194,*60
$GAGSV,2,2,07,130,25,067,,112,22,313,,121,05,169,*61
$GPGSA,A,3,05,13,15,20,21,,,,,,,,3.3,1.8,2.8*33
$GNGSA,A,3,05,13,15,20,21,,,,,,,,3.3,1.8,2.8*2D
$GNGSA,A,3,67,68,77,79,83,84,,,,,,,3.3,1.8,2.8*29
$QZGSA,A,3,01,02,,,,,,,,,,,3.3,1.8,2.8*2E
$IMGSA,A,3,,,,,,,,,,,,,3.3,1.8,2.8*22
$BDGSA,A,3,,,,,,,,,,,,,3.3,1.8,2.8*20
$GAGSA,A,3,107,,,,,,,,,,,,3.3,1.8,2.8*16
$GPRMC,224706.00,A,3728.203331,N,12652.096878,E,000.0,,170219,,,A*7D
$GPGGA,224707.00,3728.203331,N,12652.096878,E,1,14,0.8,22.7,M,18.1,M,,*5E
$PGLOR,9,STA,224707.00,-0.013,0.000,-92,1,8,0,P,F,L,0,C,3,S,00000042,0,5,R,000832F4,TPEF,38,364866,LC,,,*4A
$PGLOR,2,PFM,HAL,P,0,0,100,0,RF,P,40,0.0,0,RTC,,P,STO,P,LTO,P,SW,P,,,OSC,PPP*34
$GPGSV,3,1,09,15,74,330,36,13,51,042,37,21,47,293,37,24,43,184,*74
$GPGSV,3,2,09,05,32,104,40,20,21,305,21,29,06,222,,28,05,063,*75
$GPGSV,3,3,09,30,04,037,*43
$GLGSV,2,1,07,68,52,341,30,83,38,245,26,77,37,060,29,67,34,060,37*67
$GLGSV,2,2,07,84,28,315,21,69,19,292,23,79,05,171,20*51
$QZGSV,1,1,03,01,80,081,25,02,38,147,15,03,07,181,*52
$BDGSV,3,1,10,203,43,206,,201,43,160,,225,42,076,,223,40,149,*63
$BDGSV,3,2,10,202,29,238,,227,18,216,,205,10,258,,220,07,288,*6D
$BDGSV,3,3,10,229,07,320,,224,06,034,*63
$GAGSV,2,1,07,107,38,063,32,119,31,278,,127,28,123,,126,26,194,*60
$GAGSV,2,2,07,130,25,067,,112,22,313,,121,05,169,*61
$GPGSA,A,3,05,13,15,20,21,,,,,,,,3.3,1.8,2.8*33
$GNGSA,A,3,05,13,15,20,21,,,,,,,,3.3,1.8,2.8*2D
$GNGSA,A,3,67,68,77,79,83,84,,,,,,,3.3,1.8,2.8*29
$QZGSA,A,3,01,02,,,,,,,,,,,3.3,1.8,2.8*2E
$IMGSA,A,3,,,,,,,,,,,,,3.3,1.8,2.8*22
$BDGSA,A,3,,,,,,,,,,,,,3.3,1.8,2.8*20
$GAGSA,A,3,107,,,,,,,,,,,,3.3,1.8,2.8*16
$GPRMC,224707.00,A,3728.203331,N,12652.096878,E,000.0,,170219,,,A*7C
$GPGGA,224708.00,3728.203331,N,12652.096878,E,1,15,0.8,22.1,M,18.1,M,,*56
$PGLOR,9,STA,224708.00,-0.013,0.000,-92,1,8,0,P,F,L,0,C,3,S,00000042,0,5,R,000832F4,TPEF,38,365866,LC,,,*44
$GPGSV,3,1,09,15,74,330,36,13,51,042,36,21,47,293,37,24,43,184,14*70
$GPGSV,3,2,09,05,32,104,40,20,21,305,20,29,06,222,,28,05,063,*74
$GPGSV,3,3,09,30,04,037,*43
$GLGSV,2,1,07,68,52,341,30,83,38,245,26,77,37,060,29,67,34,060,37*67
$GLGSV,2,2,07,84,28,315,22,69,19,292,22,79,05,171,20*53
$QZGSV,1,1,03,01,80,081,25,02,38,147,15,03,07,181,*52
$BDGSV,3,1,10,203,43,206,,201,43,160,,225,42,076,,223,40,149,*63
$BDGSV,3,2,10,202,29,238,,227,18,216,,205,10,258,,220,07,288,*6D
$BDGSV,3,3,10,229,07,320,,224,06,034,*63
$GAGSV,2,1,07,107,38,063,32,119,31,278,,127,28,123,,126,26,194,*60
$GAGSV,2,2,07,130,25,067,,112,22,313,,121,05,169,*61
$GPGSA,A,3,05,13,15,20,21,,,,,,,,2.4,1.6,1.7*37
$GNGSA,A,3,05,13,15,20,21,,,,,,,,2.4,1.6,1.7*29
$GNGSA,A,3,67,68,69,77,79,83,84,,,,,,2.4,1.6,1.7*22
$QZGSA,A,3,01,02,,,,,,,,,,,2.4,1.6,1.7*2A
$IMGSA,A,3,,,,,,,,,,,,,2.4,1.6,1.7*26
$BDGSA,A,3,,,,,,,,,,,,,2.4,1.6,1.7*24
$GAGSA,A,3,107,,,,,,,,,,,,2.4,1.6,1.7*12
$GPRMC,224708.00,A,3728.203331,N,12652.096878,E,000.0,,170219,,,A*73
$GPGGA,224709.00,3728.203331,N,12652.096878,E,1,15,0.6,21.8,M,18.1,M,,*53
$PGLOR,9,STA,224709.00,-0.013,0.000,-92,1,6,0,P,F,L,0,C,3,S,00000042,0,5,R,000832F4,TPEF,38,366866,LC,,,*48
$GPGSV,3,1,09,15,74,330,36,13,51,042,36,21,47,293,37,24,43,184,13*77
$GPGSV,3,2,09,05,32,104,40,20,21,305,20,29,06,222,,28,05,063,*74
$GPGSV,3,3,09,30,04,037,*43
$GLGSV,2,1,07,68,52,341,31,83,38,245,26,77,37,060,29,67,34,060,37*66
$GLGSV,2,2,07,84,28,315,23,69,19,292,22,79,05,171,22*50
$QZGSV,1,1,03,01,80,081,25,02,38,147,15,03,07,181,*52
$BDGSV,3,1,10,203,43,206,,201,43,160,,225,42,076,,223,40,149,*63
$BDGSV,3,2,10,202,29,238,,227,18,216,,205,10,258,,220,07,288,*6D
$BDGSV,3,3,10,229,07,320,,224,06,034,*63
$GAGSV,2,1,07,107,38,063,31,119,31,278,,127,28,123,,126,26,194,*63
$GAGSV,2,2,07,130,25,067,,112,22,313,,121,05,169,*61
$GPGSA,A,3,05,13,15,20,21,,,,,,,,2.7,1.4,2.3*31
$GNGSA,A,3,05,13,15,20,21,,,,,,,,2.7,1.4,2.3*2F
$GNGSA,A,3,67,68,69,77,79,83,84,,,,,,2.7,1.4,2.3*24
$QZGSA,A,3,01,02,,,,,,,,,,,2.7,1.4,2.3*2C
$IMGSA,A,3,,,,,,,,,,,,,2.7,1.4,2.3*20
$BDGSA,A,3,,,,,,,,,,,,,2.7,1.4,2.3*22
$GAGSA,A,3,107,,,,,,,,,,,,2.7,1.4,2.3*14
$GPRMC,224709.00,A,3728.203331,N,12652.096878,E,000.0,,170219,,,A*72
$GPGGA,224710.00,3728.203331,N,12652.096878,E,1,15,0.6,21.7,M,18.1,M,,*54
$PGLOR,9,STA,224710.00,-0.013,0.000,-92,1,6,0,P,F,L,0,C,3,S,00000042,0,5,R,000832F4,TPEF,38,367866,LC,,,*41
$GPGSV,3,1,09,15,74,330,35,13,51,042,36,21,47,293,37,24,43,184,13*74
$GPGSV,3,2,09,05,32,104,40,20,21,305,20,29,06,222,,28,05,063,*74
$GPGSV,3,3,09,30,04,037,*43
$GLGSV,2,1,07,68,52,341,31,83,38,245,25,77,37,060,29,67,34,060,37*65
$GLGSV,2,2,07,84,28,315,23,69,19,292,21,79,05,171,21*50
$QZGSV,1,1,03,01,80,081,25,02,38,147,16,03,07,181,*51
$BDGSV,3,1,10,203,43,206,,201,43,160,,225,42,076,,223,40,149,*63
$BDGSV,3,2,10,202,29,238,,227,18,216,,205,10,258,,220,07,288,*6D
$BDGSV,3,3,10,229,07,320,,224,06,034,*63
$GAGSV,2,1,07,107,38,063,31,119,31,278,,127,28,123,,126,26,194,*63
$GAGSV,2,2,07,130,25,067,,112,22,313,,121,05,169,*61
$GPGSA,A,3,05,13,15,20,21,,,,,,,,2.1,1.2,1.7*36
$GNGSA,A,3,05,13,15,20,21,,,,,,,,2.1,1.2,1.7*28
$GNGSA,A,3,67,68,69,77,79,83,84,,,,,,2.1,1.2,1.7*23
$QZGSA,A,3,01,02,,,,,,,,,,,2.1,1.2,1.7*2B
$IMGSA,A,3,,,,,,,,,,,,,2.1,1.2,1.7*27
$BDGSA,A,3,,,,,,,,,,,,,2.1,1.2,1.7*25
$GAGSA,A,3,107,,,,,,,,,,,,2.1,1.2,1.7*13
$GPRMC,224710.00,A,3728.203331,N,12652.096878,E,000.0,,170219,,,A*7A
$GPGGA,224711.00,3728.203331,N,12652.096878,E,1,16,0.6,21.7,M,18.1,M,,*56
$PGLOR,9,STA,224711.00,-0.013,0.000,-91,1,6,0,P,F,L,0,C,3,S,00000042,0,5,R,000832F4,TPEF,38,368866,LC,,,*4C
$GPGSV,3,1,09,15,74,331,35,13,51,042,36,21,47,293,36,24,43,184,13*74
$GPGSV,3,2,09,05,32,104,40,20,21,305,19,29,06,222,,28,05,063,*7E
$GPGSV,3,3,09,30,04,037,*43
$GLGSV,2,1,07,68,52,341,31,83,38,245,25,77,37,060,29,67,34,060,37*65
$GLGSV,2,2,07,84,28,315,22,69,19,292,21,79,05,171,21*51
$QZGSV,1,1,03,01,80,081,24,02,38,147,16,03,07,181,*50
$BDGSV,3,1,10,203,43,206,,201,43,160,,225,42,076,,223,40,149,*63
$BDGSV,3,2,10,202,29,238,,227,18,216,,205,10,258,,220,07,288,*6D
$BDGSV,3,3,10,229,07,320,,224,06,034,*63
$GAGSV,2,1,07,107,38,063,31,119,31,278,,127,28,123,,126,26,194,*63
$GAGSV,2,2,07,130,25,067,,112,22,313,,121,05,169,*61
$GPGSA,A,3,05,13,15,20,21,24,,,,,,,2.2,1.2,1.9*3D
$GNGSA,A,3,05,13,15,20,21,24,,,,,,,2.2,1.2,1.9*23
$GNGSA,A,3,67,68,69,77,79,83,84,,,,,,2.2,1.2,1.9*2E
$QZGSA,A,3,01,02,,,,,,,,,,,2.2,1.2,1.9*26
$IMGSA,A,3,,,,,,,,,,,,,2.2,1.2,1.9*2A
$BDGSA,A,3,,,,,,,,,,,,,2.2,1.2,1.9*28
$GAGSA,A,3,107,,,,,,,,,,,,2.2,1.2,1.9*1E
$GPRMC,224711.00,A,3728.203331,N,12652.096878,E,000.0,,170219,,,A*7B
$GPGGA,224712.00,3728.203331,N,12652.096878,E,1,16,0.6,21.7,M,18.1,M,,*55
$PGLOR,9,STA,224712.00,-0.013,0.000,-91,1,6,0,P,F,L,0,C,3,S,00000042,0,5,R,000832F4,TPEF,38,369866,LC,,,*4E
$GPGSV,3,1,09,15,74,331,35,13,51,042,36,21,47,293,36,24,43,184,13*74
$GPGSV,3,2,09,05,32,105,40,20,21,305,19,29,06,222,,28,05,063,*7F
$GPGSV,3,3,09,30,04,037,*43
$GLGSV,2,1,07,68,52,341,32,83,38,245,25,77,37,060,29,67,34,060,37*66
$GLGSV,2,2,07,84,28,315,22,69,19,292,21,79,05,171,21*51
$QZGSV,1,1,03,01,80,081,24,02,38,147,16,03,07,181,*50
$BDGSV,3,1,10,203,43,206,,201,43,160,,225,42,076,,223,40,149,*63
$BDGSV,3,2,10,202,29,238,,227,18,216,,205,10,258,,220,07,288,*6D
$BDGSV,3,3,10,229,07,320,,224,06,034,*63
$GAGSV,2,1,07,107,38,063,31,119,31,278,,127,28,123,,126,26,194,*63
$GAGSV,2,2,07,130,25,067,,112,22,313,,121,05,169,*61
$GPGSA,A,3,05,13,15,20,21,24,,,,,,,2.2,1.2,1.9*3D
$GNGSA,A,3,05,13,15,20,21,24,,,,,,,2.2,1.2,1.9*23
$GNGSA,A,3,67,68,69,77,79,83,84,,,,,,2.2,1.2,1.9*2E
$QZGSA,A,3,01,02,,,,,,,,,,,2.2,1.2,1.9*26
$IMGSA,A,3,,,,,,,,,,,,,2.2,1.2,1.9*2A
$BDGSA,A,3,,,,,,,,,,,,,2.2,1.2,1.9*28
$GAGSA,A,3,107,,,,,,,,,,,,2.2,1.2,1.9*1E
$GPRMC,224712.00,A,3728.203331,N,12652.096878,E,000.0,,170219,,,A*78
$GPGGA,224713.00,3728.203331,N,12652.096878,E,1,16,0.6,21.7,M,18.1,M,,*54
$PGLOR,9,STA,224713.00,-0.013,0.000,-91,1,6,0,P,F,L,0,C,3,S,00000042,0,5,R,000832F4,TPEF,38,370866,LC,,,*47
$GPGSV,3,1,09,15,74,331,35,13,51,042,36,21,47,293,36,24,43,184,13*74
$GPGSV,3,2,09,05,32,105,41,20,21,305,19,29,06,222,,28,05,063,*7E
$GPGSV,3,3,09,30,04,037,*43
$GLGSV,2,1,07,68,52,341,32,83,38,245,25,77,37,060,29,67,34,060,37*66
$GLGSV,2,2,07,84,28,315,21,69,19,292,22,79,05,171,20*50
$QZGSV,1,1,03,01,80,081,24,02,38,147,16,03,07,181,*50
$BDGSV,3,1,10,203,43,206,,201,43,160,,225,42,076,,223,40,149,*63
$BDGSV,3,2,10,202,29,238,,227,18,216,,205,10,258,,220,07,288,*6D
$BDGSV,3,3,10,229,07,320,,224,06,034,*63
$GAGSV,2,1,07,107,38,063,31,119,31,278,,127,28,123,,126,26,194,*63
$GAGSV,2,2,07,130,25,067,,112,22,313,,121,05,169,*61
$GPGSA,A,3,05,13,15,20,21,24,,,,,,,2.2,1.2,1.9*3D
$GNGSA,A,3,05,13,15,20,21,24,,,,,,,2.2,1.2,1.9*23
$GNGSA,A,3,67,68,69,77,79,83,84,,,,,,2.2,1.2,1.9*2E
$QZGSA,A,3,01,02,,,,,,,,,,,2.2,1.2,1.9*26
$IMGSA,A,3,,,,,,,,,,,,,2.2,1.2,1.9*2A
$BDGSA,A,3,,,,,,,,,,,,,2.2,1.2,1.9*28
$GAGSA,A,3,107,,,,,,,,,,,,2.2,1.2,1.9*1E
$GPRMC,224713.00,A,3728.203331,N,12652.096878,E,000.0,,170219,,,A*79
$GPGGA,224714.00,3728.203331,N,12652.096878,E,1,15,0.6,21.7,M,18.1,M,,*50
$PGLOR,9,STA,224714.00,-0.013,0.000,-91,1,6,0,P,F,L,0,C,3,S,00000042,0,5,R,000832F4,TPEF,38,371866,LC,,,*41
$GPGSV,3,1,09,15,74,331,35,13,51,042,36,21,47,293,36,24,43,184,13*74
$GPGSV,3,2,09,05,32,105,41,20,21,305,18,29,06,222,,28,05,063,*7F
$GPGSV,3,3,09,30,04,037,*43
$GLGSV,2,1,07,68,52,341,32,83,38,245,25,77,37,060,29,67,34,061,37*67
$GLGSV,2,2,07,84,28,315,21,69,19,292,24,79,05,171,19*5C
$QZGSV,1,1,03,01,80,081,24,02,38,147,16,03,07,181,*50
$BDGSV,3,1,10,203,43,206,,201,43,160,,225,42,076,,223,40,149,*63
$BDGSV,3,2,10,202,29,238,,227,18,216,,205,10,258,,220,07,288,*6D
$BDGSV,3,3,10,229,07,320,,224,06,034,*63
$GAGSV,2,1,07,107,38,063,31,119,31,278,,127,28,123,,126,26,194,*63
$GAGSV,2,2,07,130,25,067,,112,22,313,,121,05,169,*61
$GPGSA,A,3,05,13,15,20,21,24,,,,,,,2.7,1.4,2.3*37
$GNGSA,A,3,05,13,15,20,21,24,,,,,,,2.7,1.4,2.3*29
$GNGSA,A,3,67,68,69,77,83,84,,,,,,,2.7,1.4,2.3*2A
$QZGSA,A,3,01,02,,,,,,,,,,,2.7,1.4,2.3*2C
$IMGSA,A,3,,,,,,,,,,,,,2.7,1.4,2.3*20
$BDGSA,A,3,,,,,,,,,,,,,2.7,1.4,2.3*22
$GAGSA,A,3,107,,,,,,,,,,,,2.7,1.4,2.3*14
$GPRMC,224714.00,A,3728.203331,N,12652.096878,E,000.0,,170219,,,A*7E
$GPGGA,224715.00,3728.203331,N,12652.096878,E,1,15,0.6,21.7,M,18.1,M,,*51
$PGLOR,9,STA,224715.00,-0.013,0.000,-91,1,6,0,P,F,L,0,C,3,S,00000042,0,5,R,000832F4,TPEF,38,372866,LC,,,*43
$GPGSV,3,1,09,15,74,331,35,13,51,042,36,21,47,293,36,24,43,184,13*74
$GPGSV,3,2,09,05,32,105,41,20,21,305,18,29,06,222,,28,05,063,*7F
$GPGSV,3,3,09,30,04,037,*43
$GLGSV,2,1,07,68,52,341,32,83,38,245,25,77,37,060,28,67,34,061,37*66
$GLGSV,2,2,07,84,28,315,20,69,19,292,25,79,05,171,19*5C
$QZGSV,1,1,03,01,80,081,23,02,38,147,16,03,07,181,*57
$BDGSV,3,1,10,203,43,206,,201,43,160,,225,42,076,,223,40,149,*63
$BDGSV,3,2,10,202,29,238,,227,18,216,,205,10,258,,220,07,288,*6D
$BDGSV,3,3,10,229,07,320,,224,06,034,*63
$GAGSV,2,1,07,107,38,063,31,119,31,278,,127,28,123,,126,26,194,*63
$GAGSV,2,2,07,130,25,067,,112,22,313,,121,05,169,*61
$GPGSA,A,3,05,13,15,20,21,24,,,,,,,2.7,1.4,2.3*37
$GNGSA,A,3,05,13,15,20,21,24,,,,,,,2.7,1.4,2.3*29
$GNGSA,A,3,67,68,69,77,83,84,,,,,,,2.7,1.4,2.3*2A
$QZGSA,A,3,01,02,,,,,,,,,,,2.7,1.4,2.3*2C
$IMGSA,A,3,,,,,,,,,,,,,2.7,1.4,2.3*20
$BDGSA,A,3,,,,,,,,,,,,,2.7,1.4,2.3*22
$GAGSA,A,3,107,,,,,,,,,,,,2.7,1.4,2.3*14
$GPRMC,224715.00,A,3728.203331,N,12652.096878,E,000.0,,170219,,,A*7F
$GPGGA,224716.00,3728.203331,N,12652.096878,E,1,16,0.6,21.7,M,18.1,M,,*51
$PGLOR,9,STA,224716.00,-0.013,0.000,-91,1,6,0,P,F,L,0,C,3,S,00000042,0,5,R,000832F4,TPEF,38,373866,LC,,,*41
$GPGSV,3,1,09,15,74,331,35,13,51,042,36,21,47,293,36,24,43,184,13*74
$GPGSV,3,2,09,05,32,105,41,20,21,305,18,29,06,222,,28,05,063,*7F
$GPGSV,3,3,09,30,04,037,*43
$GLGSV,2,1,07,68,52,341,32,83,38,245,25,77,37,060,28,67,34,061,37*66
$GLGSV,2,2,07,84,28,314,19,69,19,292,25,79,05,171,18*56
$QZGSV,1,1,03,01,80,081,23,02,38,147,16,03,07,181,*57
$BDGSV,3,1,10,203,43,206,,201,43,160,,225,42,076,,223,40,149,*63
$BDGSV,3,2,10,202,29,238,,227,18,216,,205,10,258,,220,07,288,*6D
$BDGSV,3,3,10,229,07,320,,224,06,034,*63
$GAGSV,2,1,07,107,38,063,31,119,31,278,,127,28,123,,126,26,194,*63
$GAGSV,2,2,07,130,25,067,,112,22,313,,121,05,169,*61
$GPGSA,A,3,05,13,15,20,21,24,,,,,,,1.9,1.1,1.6*39
$GNGSA,A,3,05,13,15,20,21,24,,,,,,,1.9,1.1,1.6*27
$GNGSA,A,3,67,68,69,77,79,83,84,,,,,,1.9,1.1,1.6*2A
$QZGSA,A,3,01,02,,,,,,,,,,,1.9,1.1,1.6*22
$IMGSA,A,3,,,,,,,,,,,,,1.9,1.1,1.6*2E
$BDGSA,A,3,,,,,,,,,,,,,1.9,1.1,1.6*2C
$GAGSA,A,3,107,,,,,,,,,,,,1.9,1.1,1.6*1A
$GPRMC,224716.00,A,3728.203331,N,12652.096878,E,000.0,,170219,,,A*7C
$GPGGA,224717.00,3728.203331,N,12652.096878,E,1,16,0.6,21.7,M,18.1,M,,*50
$PGLOR,9,STA,224717.00,-0.013,0.000,-91,1,6,0,P,F,L,0,C,3,S,00000042,0,5,R,000832F4,TPEF,38,374866,LC,,,*47
$GPGSV,3,1,09,15,74,331,35,13,51,042,36,21,47,293,36,24,43,184,13*74
$GPGSV,3,2,09,05,32,105,41,20,21,305,18,29,06,222,,28,05,063,*7F
$GPGSV,3,3,09,30,04,037,*43
$GLGSV,2,1,07,68,52,341,32,83,38,245,25,77,37,060,28,67,34,061,37*66
$GLGSV,2,2,07,84,28,314,19,69,19,292,25,79,05,171,18*56
$QZGSV,1,1,03,01,80,081,23,02,38,147,16,03,07,181,*57
$BDGSV,3,1,10,203,43,206,,201,43,160,,225,42,076,,223,40,149,*63
$BDGSV,3,2,10,202,29,238,,227,18,216,,205,10,258,,220,07,288,*6D
$BDGSV,3,3,10,229,07,320,,224,06,034,*63
$GAGSV,2,1,07,107,38,063,31,119,31,278,,127,28,123,,126,26,194,*63
$GAGSV,2,2,07,130,25,067,,112,22,313,,121,05,169,*61
$GPGSA,A,3,05,13,15,20,21,24,,,,,,,1.9,1.2,1.5*39
$GNGSA,A,3,05,13,15,20,21,24,,,,,,,1.9,1.2,1.5*27
$GNGSA,A,3,67,68,69,77,79,83,84,,,,,,1.9,1.2,1.5*2A
$QZGSA,A,3,01,02,,,,,,,,,,,1.9,1.2,1.5*22
$IMGSA,A,3,,,,,,,,,,,,,1.9,1.2,1.5*2E
$BDGSA,A,3,,,,,,,,,,,,,1.9,1.2,1.5*2C
$GAGSA,A,3,107,,,,,,,,,,,,1.9,1.2,1.5*1A
$GPRMC,224717.00,A,3728.203331,N,12652.096878,E,000.0,,170219,,,A*7D
$GPGGA,224718.00,3728.203331,N,12652.096878,E,1,16,0.6,21.7,M,18.1,M,,*5F
$PGLOR,9,STA,224718.00,-0.013,0.000,-91,1,6,0,P,F,L,0,C,3,S,00000042,0,5,R,000832F4,TPEF,38,375866,LC,,,*49
$GPGSV,3,1,09,15,74,331,35,13,51,042,36,21,47,293,36,24,43,184,14*73
$GPGSV,3,2,09,05,32,105,41,20,21,305,18,29,06,222,,28,05,063,*7F
$GPGSV,3,3,09,30,04,037,*43
$GLGSV,2,1,07,68,52,341,32,83,38,245,25,77,37,060,28,67,34,061,37*66
$GLGSV,2,2,07,84,28,314,18,69,19,292,25,79,05,171,17*58
$QZGSV,1,1,03,01,80,081,23,02,38,147,16,03,07,181,*57
$BDGSV,3,1,10,203,43,206,,201,43,160,,225,42,076,,223,40,149,*63
$BDGSV,3,2,10,202,29,238,,227,18,216,,205,10,258,,220,07,288,*6D
$BDGSV,3,3,10,229,07,320,,224,06,034,*63
$GAGSV,2,1,07,107,38,063,31,119,31,278,,127,28,123,,126,26,194,*63
$GAGSV,2,2,07,130,25,067,,112,22,313,,121,05,169,*61
$GPGSA,A,3,05,13,15,20,21,24,,,,,,,1.9,1.2,1.5*39
$GNGSA,A,3,05,13,15,20,21,24,,,,,,,1.9,1.2,1.5*27
$GNGSA,A,3,67,68,69,77,79,83,84,,,,,,1.9,1.2,1.5*2A
$QZGSA,A,3,01,02,,,,,,,,,,,1.9,1.2,1.5*22
$IMGSA,A,3,,,,,,,,,,,,,1.9,1.2,1.5*2E
$BDGSA,A,3,,,,,,,,,,,,,1.9,1.2,1.5*2C
$GAGSA,A,3,107,,,,,,,,,,,,1.9,1.2,1.5*1A
$GPRMC,224718.00,A,3728.203331,N,12652.096878,E,000.0,,170219,,,A*72
$GPGGA,224719.00,3728.203331,N,12652.096878,E,1,16,0.6,21.7,M,18.1,M,,*5E
$PGLOR,9,STA,224719.00,-0.013,0.000,-91,1,6,0,P,F,L,0,C,3,S,00000042,0,5,R,000832F4,TPEF,38,376866,LC,,,*4B
$GPGSV,3,1,09,15,74,331,35,13,51,042,36,21,47,293,36,24,43,184,15*72
$GPGSV,3,2,09,05,32,105,41,20,21,305,19,29,06,222,,28,05,063,*7E
$GPGSV,3,3,09,30,04,037,*43
$GLGSV,2,1,07,68,52,341,32,83,38,245,26,77,37,060,28,67,34,061,37*65
$GLGSV,2,2,07,84,28,314,18,69,19,292,25,79,06,171,17*5B
$QZGSV,1,1,03,01,80,081,23,02,38,147,16,03,07,181,*57
$BDGSV,3,1,10,203,43,206,,201,43,160,,225,42,076,,223,41,149,*62
$BDGSV,3,2,10,202,29,238,,227,18,216,,205,10,258,,220,07,288,*6D
$BDGSV,3,3,10,229,07,320,,224,06,034,*63
$GAGSV,2,1,07,107,38,063,31,119,31,278,,127,28,123,,126,26,194,*63
$GAGSV,2,2,07,130,25,067,,112,22,313,,121,05,169,*61
$GPGSA,A,3,05,13,15,20,21,24,,,,,,,2.1,1.2,1.7*30
$GNGSA,A,3,05,13,15,20,21,24,,,,,,,2.1,1.2,1.7*2E
$GNGSA,A,3,67,68,69,77,79,83,84,,,,,,2.1,1.2,1.7*23
$QZGSA,A,3,01,02,,,,,,,,,,,2.1,1.2,1.7*2B
$IMGSA,A,3,,,,,,,,,,,,,2.1,1.2,1.7*27
$BDGSA,A,3,,,,,,,,,,,,,2.1,1.2,1.7*25
$GAGSA,A,3,107,,,,,,,,,,,,2.1,1.2,1.7*13
$GPRMC,224719.00,A,3728.203331,N,12652.096878,E,000.0,,170219,,,A*73
$GPGGA,224720.00,3728.203331,N,12652.096878,E,1,16,0.6,21.7,M,18.1,M,,*54
$PGLOR,9,STA,224720.00,-0.013,0.000,-90,1,6,0,P,F,L,0,C,3,S,00000042,0,5,R,000832F4,TPEF,38,377866,LC,,,*41
$GPGSV,3,1,09,15,74,331,34,13,51,042,36,21,47,293,36,24,43,184,15*73
$GPGSV,3,2,09,05,32,105,41,20,21,305,20,29,06,222,,28,05,063,*74
$GPGSV,3,3,09,30,04,037,*43
$GLGSV,2,1,07,68,52,341,32,83,38,245,26,77,37,060,28,67,34,061,37*65
$GLGSV,2,2,07,84,28,314,17,69,19,292,25,79,06,171,17*54
$QZGSV,1,1,03,01,80,081,23,02,38,147,16,03,07,181,*57
$BDGSV,3,1,10,203,43,206,,201,43,160,,225,42,076,,223,41,149,*62
$BDGSV,3,2,10,202,29,238,,227,18,216,,205,10,258,,220,07,288,*6D
$BDGSV,3,3,10,229,07,320,,224,05,034,*60
$GAGSV,2,1,07,107,38,063,31,119,31,278,,127,28,123,,126,26,194,*63
$GAGSV,2,2,07,130,25,067,,112,22,313,,121,05,169,*61
$GPGSA,A,3,05,13,15,20,21,24,,,,,,,2.1,1.2,1.7*30
$GNGSA,A,3,05,13,15,20,21,24,,,,,,,2.1,1.2,1.7*2E
$GNGSA,A,3,67,68,69,77,79,83,84,,,,,,2.1,1.2,1.7*23
$QZGSA,A,3,01,02,,,,,,,,,,,2.1,1.2,1.7*2B
$IMGSA,A,3,,,,,,,,,,,,,2.1,1.2,1.7*27
$BDGSA,A,3,,,,,,,,,,,,,2.1,1.2,1.7*25
$GAGSA,A,3,107,,,,,,,,,,,,2.1,1.2,1.7*13
$GPRMC,224720.00,A,3728.203331,N,12652.096878,E,000.0,,170219,,,A*79
$GPGGA,224721.00,3728.203331,N,12652.096878,E,1,16,0.6,21.7,M,18.1,M,,*55
$PGLOR,9,STA,224721.00,-0.013,0.000,-90,1,6,0,P,F,L,0,C,3,S,00000042,0,5,R,000832F4,TPEF,38,378866,LC,,,*4F
$GPGSV,3,1,09,15,74,331,34,13,51,042,36,21,47,293,36,24,43,184,18*7E
$GPGSV,3,2,09,05,32,105,41,20,21,305,21,29,06,222,,28,05,063,*75
$GPGSV,3,3,09,30,04,037,*43
$GLGSV,2,1,07,68,52,341,31,83,38,245,26,77,37,060,28,67,34,061,37*66
$GLGSV,2,2,07,84,28,314,17,69,19,292,25,79,06,171,16*55
$QZGSV,1,1,03,01,80,081,23,02,38,147,16,03,07,181,*57
$BDGSV,3,1,10,203,43,206,,201,43,160,,225,42,075,,223,41,149,*61
$BDGSV,3,2,10,202,29,238,,227,18,216,,205,10,258,,220,07,288,*6D
$BDGSV,3,3,10,229,07,320,,224,05,034,*60
$GAGSV,2,1,07,107,38,063,31,119,31,278,,127,28,123,,126,26,194,*63
$GAGSV,2,2,07,130,25,067,,112,22,313,,121,05,169,*61
$GPGSA,A,3,05,13,15,20,21,24,,,,,,,2.7,1.4,2.3*37
$GNGSA,A,3,05,13,15,20,21,24,,,,,,,2.7,1.4,2.3*29
$GNGSA,A,3,67,68,69,77,79,83,84,,,,,,2.7,1.4,2.3*24
$QZGSA,A,3,01,02,,,,,,,,,,,2.7,1.4,2.3*2C
$IMGSA,A,3,,,,,,,,,,,,,2.7,1.4,2.3*20
$BDGSA,A,3,,,,,,,,,,,,,2.7,1.4,2.3*22
$GAGSA,A,3,107,,,,,,,,,,,,2.7,1.4,2.3*14
$GPRMC,224721.00,A,3728.203331,N,12652.096878,E,000.0,,170219,,,A*78
$GPGGA,224722.00,3728.203331,N,12652.096878,E,1,16,0.6,21.7,M,18.1,M,,*56
$PGLOR,9,STA,224722.00,-0.013,0.000,-90,1,6,0,P,F,L,0,C,3,S,00000042,0,5,R,000832F4,TPEF,38,379866,LC,,,*4D
$GPGSV,3,1,09,15,74,331,34,13,51,042,36,21,47,293,36,24,43,184,19*7F
$GPGSV,3,2,09,05,32,105,41,20,21,305,22,29,06,222,,28,05,063,*76
$GPGSV,3,3,09,30,04,037,*43
$GLGSV,2,1,07,68,52,341,31,83,38,245,25,77,37,060,27,67,34,061,37*6A
$GLGSV,2,2,07,84,28,314,17,69,19,292,25,79,06,171,16*55
$QZGSV,1,1,03,01,80,081,23,02,38,147,16,03,07,181,*57
$BDGSV,3,1,10,203,43,206,,201,43,160,,225,42,075,,223,41,149,*61
$BDGSV,3,2,10,202,29,238,,227,17,216,,205,10,258,,220,07,288,*62
$BDGSV,3,3,10,229,07,320,,224,05,034,*60
$GAGSV,2,1,07,107,38,063,31,119,31,278,,127,28,123,,126,26,194,*63
$GAGSV,2,2,07,130,25,067,,112,22,313,,121,05,169,*61
$GPGSA,A,3,05,13,15,20,21,24,,,,,,,2.0,1.2,1.6*30
$GNGSA,A,3,05,13,15,20,21,24,,,,,,,2.0,1.2,1.6*2E
$GNGSA,A,3,67,68,69,77,79,83,84,,,,,,2.0,1.2,1.6*23
$QZGSA,A,3,01,02,,,,,,,,,,,2.0,1.2,1.6*2B
$IMGSA,A,3,,,,,,,,,,,,,2.0,1.2,1.6*27
$BDGSA,A,3,,,,,,,,,,,,,2.0,1.2,1.6*25
$GAGSA,A,3,107,,,,,,,,,,,,2.0,1.2,1.6*13
$GPRMC,224722.00,A,3728.203331,N,12652.096878,E,000.0,,170219,,,A*7B
$GPGGA,224723.00,3728.203331,N,12652.096878,E,1,16,0.6,21.7,M,18.1,M,,*57
$PGLOR,9,STA,224723.00,-0.013,0.000,-90,1,6,0,P,F,L,0,C,3,S,00000042,0,5,R,000832F4,TPEF,38,380866,LC,,,*4A
$GPGSV,3,1,09,15,74,331,34,13,51,042,36,21,47,293,36,24,43,184,20*75
$GPGSV,3,2,09,05,32,105,41,20,21,305,22,29,06,222,,28,05,063,*76
$GPGSV,3,3,09,30,04,037,*43
$GLGSV,2,1,07,68,52,341,31,83,38,245,25,77,37,060,27,67,34,061,37*6A
$GLGSV,2,2,07,84,28,314,17,69,19,292,25,79,06,171,16*55
$QZGSV,1,1,03,01,80,081,23,02,38,147,16,03,07,181,*57
$BDGSV,3,1,10,203,43,206,,201,43,160,,225,42,075,,223,41,149,*61
$BDGSV,3,2,10,202,29,238,,227,17,216,,205,10,258,,220,07,288,*62
$BDGSV,3,3,10,229,07,320,,224,05,034,*60
$GAGSV,2,1,07,107,38,063,31,119,31,278,,127,28,123,,126,26,194,*63
$GAGSV,2,2,07,130,25,067,,112,22,313,,121,05,169,*61
$GPGSA,A,3,05,13,15,20,21,24,,,,,,,1.9,1.1,1.6*39
$GNGSA,A,3,05,13,15,20,21,24,,,,,,,1.9,1.1,1.6*27
$GNGSA,A,3,67,68,69,77,79,83,84,,,,,,1.9,1.1,1.6*2A
$QZGSA,A,3,01,02,,,,,,,,,,,1.9,1.1,1.6*22
$IMGSA,A,3,,,,,,,,,,,,,1.9,1.1,1.6*2E
$BDGSA,A,3,,,,,,,,,,,,,1.9,1.1,1.6*2C
$GAGSA,A,3,107,,,,,,,,,,,,1.9,1.1,1.6*1A
$GPRMC,224723.00,A,3728.203331,N,12652.096878,E,000.0,,170219,,,A*7A
$GPGGA,224724.00,3728.203331,N,12652.096878,E,1,16,0.6,21.7,M,18.1,M,,*50
$PGLOR,9,STA,224724.00,-0.013,0.000,-90,1,6,0,P,F,L,0,C,3,S,00000042,0,5,R,000832F4,TPEF,38,381866,LC,,,*4C
$GPGSV,3,1,09,15,74,331,34,13,51,042,36,21,47,293,36,24,43,184,20*75
$GPGSV,3,2,09,05,32,105,41,20,21,305,24,29,06,222,,28,05,063,*70
$GPGSV,3,3,09,30,04,037,*43
$GLGSV,2,1,07,68,52,341,31,83,38,245,25,77,37,060,27,67,34,061,37*6A
$GLGSV,2,2,07,84,28,314,19,69,19,292,25,79,06,171,16*5B
$QZGSV,1,1,03,01,80,081,23,02,38,147,16,03,07,181,*57
$BDGSV,3,1,10,203,43,206,,201,43,160,,225,42,075,,223,41,149,*61
$BDGSV,3,2,10,202,29,238,,227,17,216,,205,10,258,,220,07,288,*62
$BDGSV,3,3,10,229,07,320,,224,05,034,*60
$GAGSV,2,1,07,107,38,063,31,119,31,278,,127,28,123,,126,26,194,*63
$GAGSV,2,2,07,130,25,067,,112,22,313,,121,05,169,*61
$GPGSA,A,3,05,13,15,20,21,24,,,,,,,2.0,1.2,1.6*30
$GNGSA,A,3,05,13,15,20,21,24,,,,,,,2.0,1.2,1.6*2E
$GNGSA,A,3,67,68,69,77,79,83,84,,,,,,2.0,1.2,1.6*23
$QZGSA,A,3,01,02,,,,,,,,,,,2.0,1.2,1.6*2B
$IMGSA,A,3,,,,,,,,,,,,,2.0,1.2,1.6*27
$BDGSA,A,3,,,,,,,,,,,,,2.0,1.2,1.6*25
$GAGSA,A,3,107,,,,,,,,,,,,2.0,1.2,1.6*13
$GPRMC,224724.00,A,3728.203331,N,12652.096878,E,000.0,,170219,,,A*7D
$GPGGA,224725.00,3728.203331,N,12652.096878,E,1,16,0.6,21.7,M,18.1,M,,*51
$PGLOR,9,STA,224725.00,-0.013,0.000,-90,1,6,0,P,F,L,0,C,3,S,00000042,0,5,R,000832F4,TPEF,38,382866,LC,,,*4E
$GPGSV,3,1,09,15,74,331,34,13,51,042,36,21,47,293,36,24,43,184,22*77
$GPGSV,3,2,09,05,32,105,41,20,21,305,24,29,06,222,,28,05,063,*70
$GPGSV,3,3,09,30,04,037,*43
$GLGSV,2,1,07,68,53,341,31,83,38,245,25,77,37,060,27,67,34,061,37*6B
$GLGSV,2,2,07,84,28,314,21,69,19,292,25,79,06,171,16*50
$QZGSV,1,1,03,01,80,081,23,02,38,147,16,03,07,181,*57
$BDGSV,3,1,10,203,43,206,,201,43,160,,225,42,075,,223,41,149,*61
$BDGSV,3,2,10,202,29,238,,227,17,216,,205,10,258,,220,07,288,*62
$BDGSV,3,3,10,229,07,320,,224,05,034,*60
$GAGSV,2,1,07,107,38,063,30,119,31,278,,127,28,123,,126,26,194,*62
$GAGSV,2,2,07,130,25,067,,112,22,313,,121,05,169,*61
$GPGSA,A,3,05,13,15,20,21,24,,,,,,,2.0,1.2,1.6*30
$GNGSA,A,3,05,13,15,20,21,24,,,,,,,2.0,1.2,1.6*2E
$GNGSA,A,3,67,68,69,77,79,83,84,,,,,,2.0,1.2,1.6*23
$QZGSA,A,3,01,02,,,,,,,,,,,2.0,1.2,1.6*2B
$IMGSA,A,3,,,,,,,,,,,,,2.0,1.2,1.6*27
$BDGSA,A,3,,,,,,,,,,,,,2.0,1.2,1.6*25
$GAGSA,A,3,107,,,,,,,,,,,,2.0,1.2,1.6*13
$GPRMC,224725.00,A,3728.203331,N,12652.096878,E,000.0,,170219,,,A*7C
$GPGGA,224726.00,3728.203331,N,12652.096878,E,1,16,0.6,21.7,M,18.1,M,,*52
$PGLOR,9,STA,224726.00,-0.013,0.000,-90,1,6,0,P,F,L,0,C,3,S,00000042,0,5,R,000832F4,TPEF,38,383866,LC,,,*4C
$GPGSV,3,1,09,15,74,331,33,13,51,042,36,21,47,293,36,24,43,184,22*70
$GPGSV,3,2,09,05,32,105,41,20,21,305,25,29,06,222,,28,05,063,*71
$GPGSV,3,3,09,30,04,037,*43
$GLGSV,2,1,07,68,53,341,31,83,38,245,25,77,37,060,27,67,34,061,36*6A
$GLGSV,2,2,07,84,28,314,22,69,19,292,25,79,06,171,16*53
$QZGSV,1,1,03,01,80,081,23,02,38,147,16,03,07,181,*57
$BDGSV,3,1,10,203,43,206,,201,43,160,,225,42,075,,223,41,149,*61
$BDGSV,3,2,10,202,29,238,,227,17,216,,205,10,258,,220,07,288,*62
$BDGSV,3,3,10,229,07,320,,224,05,034,*60
$GAGSV,2,1,07,107,38,063,30,119,31,278,,127,28,123,,126,26,194,*62
$GAGSV,2,2,07,130,25,067,,112,23,313,,121,05,169,*60
$GPGSA,A,3,05,13,15,20,21,24,,,,,,,2.0,1.2,1.6*30
$GNGSA,A,3,05,13,15,20,21,24,,,,,,,2.0,1.2,1.6*2E
$GNGSA,A,3,67,68,69,77,79,83,84,,,,,,2.0,1.2,1.6*23
$QZGSA,A,3,01,02,,,,,,,,,,,2.0,1.2,1.6*2B
$IMGSA,A,3,,,,,,,,,,,,,2.0,1.2,1.6*27
$BDGSA,A,3,,,,,,,,,,,,,2.0,1.2,1.6*25
$GAGSA,A,3,107,,,,,,,,,,,,2.0,1.2,1.6*13
$GPRMC,224726.00,A,3728.203331,N,12652.096878,E,000.0,,170219,,,A*7F
$GPGGA,224727.00,3728.203331,N,12652.096878,E,1,16,0.6,21.7,M,18.1,M,,*53
$PGLOR,9,STA,224727.00,-0.013,0.000,-90,1,6,0,P,F,L,0,C,3,S,00000042,0,5,R,000832F4,TPEF,38,384866,LC,,,*4A
$GPGSV,3,1,09,15,74,331,33,13,51,042,36,21,47,293,36,24,43,184,22*70
$GPGSV,3,2,09,05,32,105,41,20,21,305,25,29,06,222,,28,05,063,*71
$GPGSV,3,3,09,30,04,037,*43
$GLGSV,2,1,07,68,53,341,30,83,38,245,25,77,37,060,27,67,34,061,36*6B
$GLGSV,2,2,07,84,28,314,23,69,19,292,25,79,06,171,16*52
$QZGSV,1,1,03,01,80,081,23,02,38,147,16,03,07,181,*57
$BDGSV,3,1,10,203,43,206,,201,43,160,,225,42,075,,223,41,149,*61
$BDGSV,3,2,10,202,29,238,,227,17,216,,205,10,258,,220,07,288,*62
$BDGSV,3,3,10,229,07,320,,224,05,034,*60
$GAGSV,2,1,07,107,38,063,30,119,31,278,,127,28,123,,126,26,194,*62
$GAGSV,2,2,07,130,25,067,,112,23,313,,121,05,169,*60
$GPGSA,A,3,05,13,15,20,21,24,,,,,,,2.0,1.2,1.6*30
$GNGSA,A,3,05,13,15,20,21,24,,,,,,,2.0,1.2,1.6*2E
$GNGSA,A,3,67,68,69,77,79,83,84,,,,,,2.0,1.2,1.6*23
$QZGSA,A,3,01,02,,,,,,,,,,,2.0,1.2,1.6*2B
$IMGSA,A,3,,,,,,,,,,,,,2.0,1.2,1.6*27
$BDGSA,A,3,,,,,,,,,,,,,2.0,1.2,1.6*25
$GAGSA,A,3,107,,,,,,,,,,,,2.0,1.2,1.6*13
$GPRMC,224727.00,A,3728.203331,N,12652.096878,E,000.0,,170219,,,A*7E
$GPGGA,224728.00,3728.203331,N,12652.096878,E,1,16,0.6,21.7,M,18.1,M,,*5C
$PGLOR,9,STA,224728.00,-0.013,0.000,-90,1,6,0,P,F,L,0,C,3,S,00000042,0,5,R,000832F4,TPEF,38,385866,LC,,,*44
$GPGSV,3,1,09,15,74,331,33,13,50,042,36,21,47,293,36,24,43,184,22*71
$GPGSV,3,2,09,05,32,105,41,20,21,305,25,29,06,222,,28,05,063,*71
$GPGSV,3,3,09,30,04,037,*43
$GLGSV,2,1,07,68,53,341,30,83,38,245,25,77,37,060,27,67,34,061,36*6B
$GLGSV,2,2,07,84,28,314,25,69,19,292,25,79,06,171,16*54
$QZGSV,1,1,03,01,80,081,23,02,38,147,16,03,07,181,*57
$BDGSV,3,1,10,203,43,206,,201,43,160,,225,42,075,,223,41,149,*61
$BDGSV,3,2,10,202,29,238,,227,17,216,,205,10,258,,220,07,288,*62
$BDGSV,3,3,10,229,07,320,,224,05,034,*60
$GAGSV,2,1,07,107,38,063,30,119,31,278,,127,28,123,,126,26,194,*62
$GAGSV,2,2,07,130,25,067,,112,23,313,,121,05,169,*60
$GPGSA,A,3,05,13,15,20,21,24,,,,,,,2.0,1.2,1.6*30
$GNGSA,A,3,05,13,15,20,21,24,,,,,,,2.0,1.2,1.6*2E
$GNGSA,A,3,67,68,69,77,79,83,84,,,,,,2.0,1.2,1.6*23
$QZGSA,A,3,01,02,,,,,,,,,,,2.0,1.2,1.6*2B
$IMGSA,A,3,,,,,,,,,,,,,2.0,1.2,1.6*27
$BDGSA,A,3,,,,,,,,,,,,,2.0,1.2,1.6*25
$GAGSA,A,3,107,,,,,,,,,,,,2.0,1.2,1.6*13
$GPRMC,224728.00,A,3728.203331,N,12652.096878,E,000.0,,170219,,,A*71
$GPGGA,224729.00,3728.203331,N,12652.096878,E,1,16,0.6,21.7,M,18.1,M,,*5D
$PGLOR,9,STA,224729.00,-0.013,0.000,-90,1,6,0,P,F,L,0,C,3,S,00000042,0,5,R,000832F4,TPEF,38,386866,LC,,,*46
$GPGSV,3,1,09,15,74,331,33,13,50,042,36,21,47,293,36,24,43,184,22*71
$GPGSV,3,2,09,05,32,105,42,20,21,305,25,29,06,222,,28,05,063,*72
$GPGSV,3,3,09,30,04,037,*43
$GLGSV,2,1,07,68,53,341,30,83,38,245,25,77,37,060,27,67,34,061,36*6B
$GLGSV,2,2,07,84,28,314,25,69,19,292,25,79,06,171,18*5A
$QZGSV,1,1,03,01,80,081,23,02,38,147,16,03,07,181,*57
$BDGSV,3,1,10,203,43,206,,201,43,160,,225,42,075,,223,41,149,*61
$BDGSV,3,2,10,202,29,238,,227,17,216,,205,10,258,,220,07,288,*62
$BDGSV,3,3,10,229,07,320,,224,05,034,*60
